{
"RECORDS":[
{
"id":"B0017021E7",
"name":"新世纪百货(学田湾店)",
"type":"购物服务;商场;普通商场",
"typecode":"060102",
"biz_type":"[]",
"address":"上清寺街道学田湾正街55号负1楼",
"location":"106.551127,29.559101",
"tel":"023-89034125",
"distance":"[]",
"biz_ext":"[]",
"pname":"重庆市",
"cityname":"重庆市",
"adname":"渝中区",
"importance":"[]",
"shopid":"[]",
"shopinfo":"0",
"poiweight":"[]",
"parking_type":null,
"avg_price":null,
"avg_price_type":null
},
{
"id":"B001708IVV",
"name":"新世纪百货(大坪店)",
"type":"购物服务;商场;购物中心",
"typecode":"060101",
"biz_type":"[]",
"address":"长江二路121号",
"location":"106.517669,29.537682",
"tel":"023-89870839",
"distance":"[]",
"biz_ext":"[]",
"pname":"重庆市",
"cityname":"重庆市",
"adname":"渝中区",
"importance":"[]",
"shopid":"[]",
"shopinfo":"0",
"poiweight":"[]",
"parking_type":null,
"avg_price":null,
"avg_price_type":null
},
{
"id":"B00170997B",
"name":"家乐福(棉花街店)",
"type":"购物服务;超级市场;家乐福",
"typecode":"060401",
"biz_type":"[]",
"address":"沧白路2号新重庆广场",
"location":"106.581667,29.561472",
"tel":"[]",
"distance":"[]",
"biz_ext":"[]",
"pname":"重庆市",
"cityname":"重庆市",
"adname":"渝中区",
"importance":"[]",
"shopid":"[]",
"shopinfo":"0",
"poiweight":"[]",
"parking_type":null,
"avg_price":null,
"avg_price_type":null
},
{
"id":"B00170AOMC",
"name":"重百超市(解放碑新华店)",
"type":"购物服务;超级市场;超市",
"typecode":"060400",
"biz_type":"[]",
"address":"邹容路121号B1层",
"location":"106.576345,29.557371",
"tel":"023-63718283;023-63710379;15730468503",
"distance":"[]",
"biz_ext":"[]",
"pname":"重庆市",
"cityname":"重庆市",
"adname":"渝中区",
"importance":"[]",
"shopid":"[]",
"shopinfo":"0",
"poiweight":"[]",
"parking_type":null,
"avg_price":null,
"avg_price_type":null
},
{
"id":"B00170AOPH",
"name":"重百大楼",
"type":"购物服务;购物相关场所;购物相关场所",
"typecode":"060000",
"biz_type":"[]",
"address":"民权路2号",
"location":"106.576263,29.557065",
"tel":"023-63836029;023-63828529",
"distance":"[]",
"biz_ext":"[]",
"pname":"重庆市",
"cityname":"重庆市",
"adname":"渝中区",
"importance":"[]",
"shopid":"[]",
"shopinfo":"0",
"poiweight":"[]",
"parking_type":null,
"avg_price":null,
"avg_price_type":null
},
{
"id":"B00170CU8H",
"name":"重百超市(临江店)",
"type":"购物服务;超级市场;超市",
"typecode":"060400",
"biz_type":"[]",
"address":"邹容路118号都市广场B座F1层",
"location":"106.574747,29.558993",
"tel":"023-63713623;023-63781140",
"distance":"[]",
"biz_ext":"[]",
"pname":"重庆市",
"cityname":"重庆市",
"adname":"渝中区",
"importance":"[]",
"shopid":"[]",
"shopinfo":"0",
"poiweight":"[]",
"parking_type":null,
"avg_price":null,
"avg_price_type":null
},
{
"id":"B00170KX4Z",
"name":"永辉超市(大坪店)",
"type":"购物服务;超级市场;超市",
"typecode":"060400",
"biz_type":"[]",
"address":"大坪正街88号莲花国际2层",
"location":"106.516581,29.541594",
"tel":"023-68818333",
"distance":"[]",
"biz_ext":"[]",
"pname":"重庆市",
"cityname":"重庆市",
"adname":"渝中区",
"importance":"[]",
"shopid":"[]",
"shopinfo":"0",
"poiweight":"[]",
"parking_type":null,
"avg_price":null,
"avg_price_type":null
},
{
"id":"B00170L0XI",
"name":"重百超市(一号桥店)",
"type":"购物服务;超级市场;超市",
"typecode":"060400",
"biz_type":"[]",
"address":"华一路15附15号",
"location":"106.567511,29.559038",
"tel":"023-63526311",
"distance":"[]",
"biz_ext":"[]",
"pname":"重庆市",
"cityname":"重庆市",
"adname":"渝中区",
"importance":"[]",
"shopid":"[]",
"shopinfo":"0",
"poiweight":"[]",
"parking_type":null,
"avg_price":null,
"avg_price_type":null
},
{
"id":"B00170L34E",
"name":"新世纪百货(美专校街店)",
"type":"购物服务;超级市场;超市",
"typecode":"060400",
"biz_type":"[]",
"address":"美专校街53号附1号(汇美大厦负一楼)",
"location":"106.546726,29.557951",
"tel":"023-89033772",
"distance":"[]",
"biz_ext":"[]",
"pname":"重庆市",
"cityname":"重庆市",
"adname":"渝中区",
"importance":"[]",
"shopid":"[]",
"shopinfo":"0",
"poiweight":"[]",
"parking_type":null,
"avg_price":null,
"avg_price_type":null
},
{
"id":"B00170L9TO",
"name":"新世纪百货(肖家湾店)",
"type":"购物服务;商场;普通商场",
"typecode":"060102",
"biz_type":"[]",
"address":"长江二路16号",
"location":"106.524984,29.542146",
"tel":"023-89068708;023-89068709",
"distance":"[]",
"biz_ext":"[]",
"pname":"重庆市",
"cityname":"重庆市",
"adname":"渝中区",
"importance":"[]",
"shopid":"[]",
"shopinfo":"0",
"poiweight":"[]",
"parking_type":null,
"avg_price":null,
"avg_price_type":null
},
{
"id":"B001782MHJ",
"name":"永辉超市(较场口店)",
"type":"购物服务;超级市场;超市",
"typecode":"060400",
"biz_type":"[]",
"address":"民权路58号合景·聚融广场B1层",
"location":"106.573975,29.554306",
"tel":"023-63726333;023-63710508",
"distance":"[]",
"biz_ext":"[]",
"pname":"重庆市",
"cityname":"重庆市",
"adname":"渝中区",
"importance":"[]",
"shopid":"[]",
"shopinfo":"0",
"poiweight":"[]",
"parking_type":null,
"avg_price":null,
"avg_price_type":null
},
{
"id":"B001783S4W",
"name":"永辉超市(白象街店)",
"type":"购物服务;超级市场;超市",
"typecode":"060400",
"biz_type":"[]",
"address":"二府衙38号",
"location":"106.584118,29.556364",
"tel":"023-63911333",
"distance":"[]",
"biz_ext":"[]",
"pname":"重庆市",
"cityname":"重庆市",
"adname":"渝中区",
"importance":"[]",
"shopid":"[]",
"shopinfo":"0",
"poiweight":"[]",
"parking_type":null,
"avg_price":null,
"avg_price_type":null
},
{
"id":"B0017875W1",
"name":"卜蜂莲花(日月光中心广场)",
"type":"购物服务;超级市场;卜蜂莲花|商务住宅;楼宇;楼宇相关",
"typecode":"060409|120200",
"biz_type":"[]",
"address":"民权路89号日月光中心广场B1层",
"location":"106.571241,29.554413",
"tel":"023-86896888",
"distance":"[]",
"biz_ext":"[]",
"pname":"重庆市",
"cityname":"重庆市",
"adname":"渝中区",
"importance":"[]",
"shopid":"[]",
"shopinfo":"0",
"poiweight":"[]",
"parking_type":null,
"avg_price":null,
"avg_price_type":null
},
{
"id":"B00178VR61",
"name":"沃尔玛(大礼堂店)",
"type":"购物服务;超级市场;沃尔玛",
"typecode":"060402",
"biz_type":"[]",
"address":"人民路169号B1层",
"location":"106.554599,29.562645",
"tel":"023-63601989",
"distance":"[]",
"biz_ext":"[]",
"pname":"重庆市",
"cityname":"重庆市",
"adname":"渝中区",
"importance":"[]",
"shopid":"[]",
"shopinfo":"0",
"poiweight":"[]",
"parking_type":null,
"avg_price":null,
"avg_price_type":null
},
{
"id":"B00178VRM7",
"name":"中百仓储超市(长江支路店)",
"type":"购物服务;超级市场;超市",
"typecode":"060400",
"biz_type":"[]",
"address":"大坪长江支路25号",
"location":"106.519753,29.542419",
"tel":"023-63320426",
"distance":"[]",
"biz_ext":"[]",
"pname":"重庆市",
"cityname":"重庆市",
"adname":"渝中区",
"importance":"[]",
"shopid":"[]",
"shopinfo":"0",
"poiweight":"[]",
"parking_type":null,
"avg_price":null,
"avg_price_type":null
},
{
"id":"B00178VUFH",
"name":"永辉超市(人和街店)",
"type":"购物服务;超级市场;超市",
"typecode":"060400",
"biz_type":"[]",
"address":"人和街93号",
"location":"106.555680,29.561132",
"tel":"023-63860333",
"distance":"[]",
"biz_ext":"[]",
"pname":"重庆市",
"cityname":"重庆市",
"adname":"渝中区",
"importance":"[]",
"shopid":"[]",
"shopinfo":"0",
"poiweight":"[]",
"parking_type":null,
"avg_price":null,
"avg_price_type":null
},
{
"id":"B0017916PZ",
"name":"新世纪百货(大坪正街三巷)",
"type":"购物服务;商场;普通商场",
"typecode":"060102",
"biz_type":"[]",
"address":"长江二路174号大坪新世纪",
"location":"106.510508,29.542060",
"tel":"023-88520519",
"distance":"[]",
"biz_ext":"[]",
"pname":"重庆市",
"cityname":"重庆市",
"adname":"渝中区",
"importance":"[]",
"shopid":"[]",
"shopinfo":"0",
"poiweight":"[]",
"parking_type":null,
"avg_price":null,
"avg_price_type":null
},
{
"id":"B001792646",
"name":"新世纪生活超市(解放碑店)",
"type":"购物服务;商场;普通商场|购物服务;超级市场;超市",
"typecode":"060102|060400",
"biz_type":"[]",
"address":"青年路18号重庆商社大厦B1层",
"location":"106.575532,29.557471",
"tel":"023-89889999;023-87687999",
"distance":"[]",
"biz_ext":"[]",
"pname":"重庆市",
"cityname":"重庆市",
"adname":"渝中区",
"importance":"[]",
"shopid":"[]",
"shopinfo":"0",
"poiweight":"[]",
"parking_type":null,
"avg_price":null,
"avg_price_type":null
},
{
"id":"B001797JR1",
"name":"家乐福(民族路)",
"type":"购物服务;超级市场;家乐福",
"typecode":"060401",
"biz_type":"[]",
"address":"小什字棉花街",
"location":"106.582859,29.560693",
"tel":"[]",
"distance":"[]",
"biz_ext":"[]",
"pname":"重庆市",
"cityname":"重庆市",
"adname":"渝中区",
"importance":"[]",
"shopid":"[]",
"shopinfo":"0",
"poiweight":"[]",
"parking_type":null,
"avg_price":null,
"avg_price_type":null
},
{
"id":"B001798NSM",
"name":"华润万家(重庆天地店)",
"type":"购物服务;超级市场;华润",
"typecode":"060403",
"biz_type":"[]",
"address":"瑞天路184号",
"location":"106.504434,29.553473",
"tel":"023-63256066;17786370510",
"distance":"[]",
"biz_ext":"[]",
"pname":"重庆市",
"cityname":"重庆市",
"adname":"渝中区",
"importance":"[]",
"shopid":"[]",
"shopinfo":"0",
"poiweight":"[]",
"parking_type":null,
"avg_price":null,
"avg_price_type":null
},
{
"id":"B0FFF3DBVP",
"name":"福百泰(重百大楼)",
"type":"购物服务;便民商店\/便利店;便民商店\/便利店",
"typecode":"060200",
"biz_type":"[]",
"address":"民权路2号F1层",
"location":"106.576513,29.557182",
"tel":"[]",
"distance":"[]",
"biz_ext":"[]",
"pname":"重庆市",
"cityname":"重庆市",
"adname":"渝中区",
"importance":"[]",
"shopid":"[]",
"shopinfo":"0",
"poiweight":"[]",
"parking_type":null,
"avg_price":null,
"avg_price_type":null
},
{
"id":"B0FFF3YECW",
"name":"新世纪百货(黄杨路店)",
"type":"购物服务;超级市场;超市",
"typecode":"060400",
"biz_type":"[]",
"address":"金科·VISAR国际B2层",
"location":"106.525801,29.530045",
"tel":"[]",
"distance":"[]",
"biz_ext":"[]",
"pname":"重庆市",
"cityname":"重庆市",
"adname":"渝中区",
"importance":"[]",
"shopid":"[]",
"shopinfo":"0",
"poiweight":"[]",
"parking_type":null,
"avg_price":null,
"avg_price_type":null
},
{
"id":"B0FFF9NODT",
"name":"华润万家(重庆时代广场)",
"type":"购物服务;超级市场;华润",
"typecode":"060403",
"biz_type":"[]",
"address":"解放碑邹容路100号重庆时代广场B1层B101",
"location":"106.576876,29.557917",
"tel":"023-63732005",
"distance":"[]",
"biz_ext":"[]",
"pname":"重庆市",
"cityname":"重庆市",
"adname":"渝中区",
"importance":"[]",
"shopid":"[]",
"shopinfo":"0",
"poiweight":"[]",
"parking_type":null,
"avg_price":null,
"avg_price_type":null
},
{
"id":"B0FFFAJJDQ",
"name":"新世纪百货(时代天街店)",
"type":"购物服务;商场;普通商场",
"typecode":"060102",
"biz_type":"[]",
"address":"时代天街2号龙湖时代天街B馆",
"location":"106.512580,29.537772",
"tel":"[]",
"distance":"[]",
"biz_ext":"[]",
"pname":"重庆市",
"cityname":"重庆市",
"adname":"渝中区",
"importance":"[]",
"shopid":"[]",
"shopinfo":"0",
"poiweight":"[]",
"parking_type":null,
"avg_price":null,
"avg_price_type":null
},
{
"id":"B0FFFAL8FH",
"name":"新世纪百货(经纬大道店)",
"type":"购物服务;超级市场;超市",
"typecode":"060400",
"biz_type":"[]",
"address":"经纬大道335-347号",
"location":"106.517008,29.543540",
"tel":"023-88598779;023-88598778",
"distance":"[]",
"biz_ext":"[]",
"pname":"重庆市",
"cityname":"重庆市",
"adname":"渝中区",
"importance":"[]",
"shopid":"[]",
"shopinfo":"0",
"poiweight":"[]",
"parking_type":null,
"avg_price":null,
"avg_price_type":null
},
{
"id":"B0FFFHBMKF",
"name":"新世纪百货精致超市(英利·大融城)",
"type":"购物服务;商场;普通商场|购物服务;超级市场;超市",
"typecode":"060102|060400",
"biz_type":"[]",
"address":"民权路26号英利大融城解放碑B1层",
"location":"106.575214,29.555684",
"tel":"023-63316206;023-63316186",
"distance":"[]",
"biz_ext":"[]",
"pname":"重庆市",
"cityname":"重庆市",
"adname":"渝中区",
"importance":"[]",
"shopid":"[]",
"shopinfo":"0",
"poiweight":"[]",
"parking_type":null,
"avg_price":null,
"avg_price_type":null
},
{
"id":"B0FFFS5JJT",
"name":"新世纪百货(石油路店)",
"type":"购物服务;超级市场;超市",
"typecode":"060400",
"biz_type":"[]",
"address":"大坪正街160号万科锦程3号楼B1层",
"location":"106.505945,29.537681",
"tel":"023-86585500",
"distance":"[]",
"biz_ext":"[]",
"pname":"重庆市",
"cityname":"重庆市",
"adname":"渝中区",
"importance":"[]",
"shopid":"[]",
"shopinfo":"0",
"poiweight":"[]",
"parking_type":null,
"avg_price":null,
"avg_price_type":null
},
{
"id":"B0FFHHND94",
"name":"永辉超市(经纬大道)",
"type":"购物服务;超级市场;超市",
"typecode":"060400",
"biz_type":"[]",
"address":"经纬大道协信星光天地B1层",
"location":"106.500866,29.545770",
"tel":"[]",
"distance":"[]",
"biz_ext":"[]",
"pname":"重庆市",
"cityname":"重庆市",
"adname":"渝中区",
"importance":"[]",
"shopid":"[]",
"shopinfo":"0",
"poiweight":"[]",
"parking_type":null,
"avg_price":null,
"avg_price_type":null
},
{
"id":"B0FFHHT7E2",
"name":"永辉超市(龙湖时代天街店)",
"type":"购物服务;超级市场;超市",
"typecode":"060400",
"biz_type":"[]",
"address":"长江二路174号龙湖时代天街D馆LG层扶梯口盘",
"location":"106.513414,29.533870",
"tel":"023-68588228",
"distance":"[]",
"biz_ext":"[]",
"pname":"重庆市",
"cityname":"重庆市",
"adname":"渝中区",
"importance":"[]",
"shopid":"[]",
"shopinfo":"0",
"poiweight":"[]",
"parking_type":null,
"avg_price":null,
"avg_price_type":null
},
{
"id":"B0FFHHUV0W",
"name":"中百仓储超市(金石路店)",
"type":"购物服务;超级市场;超市",
"typecode":"060400",
"biz_type":"[]",
"address":"金石巷3号,宝香居'小区附14号、商业5号",
"location":"106.500437,29.541478",
"tel":"023-66219098",
"distance":"[]",
"biz_ext":"[]",
"pname":"重庆市",
"cityname":"重庆市",
"adname":"渝中区",
"importance":"[]",
"shopid":"[]",
"shopinfo":"0",
"poiweight":"[]",
"parking_type":null,
"avg_price":null,
"avg_price_type":null
},
{
"id":"B0FFHQ5LB9",
"name":"重庆新世纪百货(解放碑商都店)",
"type":"购物服务;商场;普通商场|公司企业;公司;公司",
"typecode":"060102|170200",
"biz_type":"[]",
"address":"青年路18号",
"location":"106.575419,29.557591",
"tel":"023-79889999",
"distance":"[]",
"biz_ext":"[]",
"pname":"重庆市",
"cityname":"重庆市",
"adname":"渝中区",
"importance":"[]",
"shopid":"[]",
"shopinfo":"0",
"poiweight":"[]",
"parking_type":null,
"avg_price":null,
"avg_price_type":null
},
{
"id":"B0FFHQJP0S",
"name":"超市(新世纪百货)",
"type":"购物服务;超级市场;超市",
"typecode":"060400",
"biz_type":"[]",
"address":"龙湖时代天街B馆新世纪百货B1层",
"location":"106.512686,29.537744",
"tel":"[]",
"distance":"[]",
"biz_ext":"[]",
"pname":"重庆市",
"cityname":"重庆市",
"adname":"渝中区",
"importance":"[]",
"shopid":"[]",
"shopinfo":"0",
"poiweight":"[]",
"parking_type":null,
"avg_price":null,
"avg_price_type":null
},
{
"id":"B0FFHS34FF",
"name":"永辉重庆渝中区(-较场口店)",
"type":"购物服务;商场;商场",
"typecode":"060100",
"biz_type":"[]",
"address":"民权路58号",
"location":"106.574520,29.554120",
"tel":"023-63726333",
"distance":"[]",
"biz_ext":"[]",
"pname":"重庆市",
"cityname":"重庆市",
"adname":"渝中区",
"importance":"[]",
"shopid":"[]",
"shopinfo":"0",
"poiweight":"[]",
"parking_type":null,
"avg_price":null,
"avg_price_type":null
},
{
"id":"B0FFHS34FM",
"name":"永辉重庆渝中区(-大坪店)",
"type":"购物服务;商场;商场",
"typecode":"060100",
"biz_type":"[]",
"address":"大坪正街88号穗东莲花国际",
"location":"106.516647,29.541285",
"tel":"023-68818333",
"distance":"[]",
"biz_ext":"[]",
"pname":"重庆市",
"cityname":"重庆市",
"adname":"渝中区",
"importance":"[]",
"shopid":"[]",
"shopinfo":"0",
"poiweight":"[]",
"parking_type":null,
"avg_price":null,
"avg_price_type":null
}
]
}