{
"RECORDS":[
{
"id":"B001709QYN",
"name":"北碚百货总公司(胜利商场)",
"type":"购物服务;商场;普通商场",
"typecode":"060102",
"biz_type":"[]",
"address":"胜利街102号",
"location":"106.436542,29.822658",
"tel":"023-68862222;023-68862614;18983792472",
"distance":"[]",
"biz_ext":"[]",
"pname":"重庆市",
"cityname":"重庆市",
"adname":"北碚区",
"importance":"[]",
"shopid":"[]",
"shopinfo":"0",
"poiweight":"[]",
"parking_type":null,
"avg_price":null,
"avg_price_type":null
},
{
"id":"B001709V7U",
"name":"益群副食",
"type":"购物服务;便民商店\/便利店;便民商店\/便利店",
"typecode":"060200",
"biz_type":"[]",
"address":"解放路79号",
"location":"106.438634,29.829210",
"tel":"023-68200064",
"distance":"[]",
"biz_ext":"[]",
"pname":"重庆市",
"cityname":"重庆市",
"adname":"北碚区",
"importance":"[]",
"shopid":"[]",
"shopinfo":"0",
"poiweight":"[]",
"parking_type":null,
"avg_price":null,
"avg_price_type":null
},
{
"id":"B001709W82",
"name":"陈红副食(渔塘湾)",
"type":"购物服务;便民商店\/便利店;便民商店\/便利店",
"typecode":"060200",
"biz_type":"[]",
"address":"渔塘湾附近",
"location":"106.439857,29.819171",
"tel":"[]",
"distance":"[]",
"biz_ext":"[]",
"pname":"重庆市",
"cityname":"重庆市",
"adname":"北碚区",
"importance":"[]",
"shopid":"[]",
"shopinfo":"0",
"poiweight":"[]",
"parking_type":null,
"avg_price":null,
"avg_price_type":null
},
{
"id":"B00170A58K",
"name":"金三角一门市",
"type":"购物服务;便民商店\/便利店;便民商店\/便利店",
"typecode":"060200",
"biz_type":"[]",
"address":"碚峡路311号",
"location":"106.438961,29.820176",
"tel":"023-68200091",
"distance":"[]",
"biz_ext":"[]",
"pname":"重庆市",
"cityname":"重庆市",
"adname":"北碚区",
"importance":"[]",
"shopid":"[]",
"shopinfo":"0",
"poiweight":"[]",
"parking_type":null,
"avg_price":null,
"avg_price_type":null
},
{
"id":"B00170A7M3",
"name":"联发副食(碚峡路)",
"type":"购物服务;便民商店\/便利店;便民商店\/便利店",
"typecode":"060200",
"biz_type":"[]",
"address":"渔塘湾与碚峡路交叉口北50米",
"location":"106.438766,29.820456",
"tel":"[]",
"distance":"[]",
"biz_ext":"[]",
"pname":"重庆市",
"cityname":"重庆市",
"adname":"北碚区",
"importance":"[]",
"shopid":"[]",
"shopinfo":"0",
"poiweight":"[]",
"parking_type":null,
"avg_price":null,
"avg_price_type":null
},
{
"id":"B00170B03Q",
"name":"二娃副食(云泉路)",
"type":"购物服务;便民商店\/便利店;便民商店\/便利店",
"typecode":"060200",
"biz_type":"[]",
"address":"云泉路47-附4号附近",
"location":"106.435779,29.822892",
"tel":"[]",
"distance":"[]",
"biz_ext":"[]",
"pname":"重庆市",
"cityname":"重庆市",
"adname":"北碚区",
"importance":"[]",
"shopid":"[]",
"shopinfo":"0",
"poiweight":"[]",
"parking_type":null,
"avg_price":null,
"avg_price_type":null
},
{
"id":"B00170B9K9",
"name":"佳佳副食(碚峡东路)",
"type":"购物服务;便民商店\/便利店;便民商店\/便利店",
"typecode":"060200",
"biz_type":"[]",
"address":"碚峡东路35-附3号",
"location":"106.444168,29.823958",
"tel":"[]",
"distance":"[]",
"biz_ext":"[]",
"pname":"重庆市",
"cityname":"重庆市",
"adname":"北碚区",
"importance":"[]",
"shopid":"[]",
"shopinfo":"0",
"poiweight":"[]",
"parking_type":null,
"avg_price":null,
"avg_price_type":null
},
{
"id":"B00170HU95",
"name":"廷平粮油副食",
"type":"购物服务;便民商店\/便利店;便民商店\/便利店",
"typecode":"060200",
"biz_type":"[]",
"address":"文星湾文星村17号",
"location":"106.434295,29.831705",
"tel":"023-68867203",
"distance":"[]",
"biz_ext":"[]",
"pname":"重庆市",
"cityname":"重庆市",
"adname":"北碚区",
"importance":"[]",
"shopid":"[]",
"shopinfo":"0",
"poiweight":"[]",
"parking_type":null,
"avg_price":null,
"avg_price_type":null
},
{
"id":"B00170HV2B",
"name":"大江副食(碚峡东路)",
"type":"购物服务;便民商店\/便利店;便民商店\/便利店",
"typecode":"060200",
"biz_type":"[]",
"address":"碚峡东路与碚峡路交叉口东南100米",
"location":"106.442787,29.824495",
"tel":"[]",
"distance":"[]",
"biz_ext":"[]",
"pname":"重庆市",
"cityname":"重庆市",
"adname":"北碚区",
"importance":"[]",
"shopid":"[]",
"shopinfo":"0",
"poiweight":"[]",
"parking_type":null,
"avg_price":null,
"avg_price_type":null
},
{
"id":"B00170HV49",
"name":"老太婆副食(碚峡路)",
"type":"购物服务;便民商店\/便利店;便民商店\/便利店",
"typecode":"060200",
"biz_type":"[]",
"address":"朝阳街道碚峡路62号",
"location":"106.444578,29.827826",
"tel":"[]",
"distance":"[]",
"biz_ext":"[]",
"pname":"重庆市",
"cityname":"重庆市",
"adname":"北碚区",
"importance":"[]",
"shopid":"[]",
"shopinfo":"0",
"poiweight":"[]",
"parking_type":null,
"avg_price":null,
"avg_price_type":null
},
{
"id":"B00170HVBK",
"name":"常旺家居",
"type":"购物服务;便民商店\/便利店;便民商店\/便利店",
"typecode":"060200",
"biz_type":"[]",
"address":"新星路100附近",
"location":"106.433570,29.819402",
"tel":"023-68862830",
"distance":"[]",
"biz_ext":"[]",
"pname":"重庆市",
"cityname":"重庆市",
"adname":"北碚区",
"importance":"[]",
"shopid":"[]",
"shopinfo":"0",
"poiweight":"[]",
"parking_type":null,
"avg_price":null,
"avg_price_type":null
},
{
"id":"B00170HVI0",
"name":"富红副食",
"type":"购物服务;便民商店\/便利店;便民商店\/便利店",
"typecode":"060200",
"biz_type":"[]",
"address":"解放路112号",
"location":"106.437676,29.828871",
"tel":"023-68861266;023-68287616",
"distance":"[]",
"biz_ext":"[]",
"pname":"重庆市",
"cityname":"重庆市",
"adname":"北碚区",
"importance":"[]",
"shopid":"[]",
"shopinfo":"0",
"poiweight":"[]",
"parking_type":null,
"avg_price":null,
"avg_price_type":null
},
{
"id":"B00170HVIE",
"name":"开云副食",
"type":"购物服务;便民商店\/便利店;便民商店\/便利店",
"typecode":"060200",
"biz_type":"[]",
"address":"重庆天生新村66号",
"location":"106.436630,29.827767",
"tel":"023-68861082",
"distance":"[]",
"biz_ext":"[]",
"pname":"重庆市",
"cityname":"重庆市",
"adname":"北碚区",
"importance":"[]",
"shopid":"[]",
"shopinfo":"0",
"poiweight":"[]",
"parking_type":null,
"avg_price":null,
"avg_price_type":null
},
{
"id":"B00170HVIK",
"name":"重庆百货(北碚商场)",
"type":"购物服务;商场;普通商场",
"typecode":"060102",
"biz_type":"[]",
"address":"天生街道天生新村63号",
"location":"106.436595,29.826538",
"tel":"023-68282706;023-68284440",
"distance":"[]",
"biz_ext":"[]",
"pname":"重庆市",
"cityname":"重庆市",
"adname":"北碚区",
"importance":"[]",
"shopid":"[]",
"shopinfo":"0",
"poiweight":"[]",
"parking_type":null,
"avg_price":null,
"avg_price_type":null
},
{
"id":"B00170HVME",
"name":"天天红副食",
"type":"购物服务;便民商店\/便利店;便民商店\/便利店",
"typecode":"060200",
"biz_type":"[]",
"address":"龙凤路西50米",
"location":"106.435081,29.813238",
"tel":"[]",
"distance":"[]",
"biz_ext":"[]",
"pname":"重庆市",
"cityname":"重庆市",
"adname":"北碚区",
"importance":"[]",
"shopid":"[]",
"shopinfo":"0",
"poiweight":"[]",
"parking_type":null,
"avg_price":null,
"avg_price_type":null
},
{
"id":"B00170HVMO",
"name":"戴老师副食",
"type":"购物服务;便民商店\/便利店;便民商店\/便利店",
"typecode":"060200",
"biz_type":"[]",
"address":"龙凤桥街道龙凤二村49号龙凤桥小学",
"location":"106.435249,29.812311",
"tel":"023-86025018",
"distance":"[]",
"biz_ext":"[]",
"pname":"重庆市",
"cityname":"重庆市",
"adname":"北碚区",
"importance":"[]",
"shopid":"[]",
"shopinfo":"0",
"poiweight":"[]",
"parking_type":null,
"avg_price":null,
"avg_price_type":null
},
{
"id":"B00170HVN8",
"name":"欣欣副食(群兴路)",
"type":"购物服务;便民商店\/便利店;便民商店\/便利店",
"typecode":"060200",
"biz_type":"[]",
"address":"龙凤路金牛面庄旁",
"location":"106.432998,29.808732",
"tel":"13527354071",
"distance":"[]",
"biz_ext":"[]",
"pname":"重庆市",
"cityname":"重庆市",
"adname":"北碚区",
"importance":"[]",
"shopid":"[]",
"shopinfo":"0",
"poiweight":"[]",
"parking_type":null,
"avg_price":null,
"avg_price_type":null
},
{
"id":"B00170HVUU",
"name":"吉祥副食(奔月路)",
"type":"购物服务;便民商店\/便利店;便民商店\/便利店",
"typecode":"060200",
"biz_type":"[]",
"address":"奔月路57号",
"location":"106.435729,29.818742",
"tel":"[]",
"distance":"[]",
"biz_ext":"[]",
"pname":"重庆市",
"cityname":"重庆市",
"adname":"北碚区",
"importance":"[]",
"shopid":"[]",
"shopinfo":"0",
"poiweight":"[]",
"parking_type":null,
"avg_price":null,
"avg_price_type":null
},
{
"id":"B00178UJK8",
"name":"龙庭副食",
"type":"购物服务;便民商店\/便利店;便民商店\/便利店",
"typecode":"060200",
"biz_type":"[]",
"address":"龙凤路全发千代大药房旁",
"location":"106.434137,29.812505",
"tel":"023-68262238;023-86025084",
"distance":"[]",
"biz_ext":"[]",
"pname":"重庆市",
"cityname":"重庆市",
"adname":"北碚区",
"importance":"[]",
"shopid":"[]",
"shopinfo":"0",
"poiweight":"[]",
"parking_type":null,
"avg_price":null,
"avg_price_type":null
},
{
"id":"B00178UPQN",
"name":"天天向上社区服务店",
"type":"购物服务;便民商店\/便利店;便民商店\/便利店",
"typecode":"060200",
"biz_type":"[]",
"address":"奔月路85号",
"location":"106.432266,29.819700",
"tel":"[]",
"distance":"[]",
"biz_ext":"[]",
"pname":"重庆市",
"cityname":"重庆市",
"adname":"北碚区",
"importance":"[]",
"shopid":"[]",
"shopinfo":"0",
"poiweight":"[]",
"parking_type":null,
"avg_price":null,
"avg_price_type":null
},
{
"id":"B00178UPXF",
"name":"七分美(天生桥店)",
"type":"购物服务;便民商店\/便利店;便民商店\/便利店",
"typecode":"060200",
"biz_type":"[]",
"address":"天生路68号附3号",
"location":"106.423645,29.816335",
"tel":"13677646931",
"distance":"[]",
"biz_ext":"[]",
"pname":"重庆市",
"cityname":"重庆市",
"adname":"北碚区",
"importance":"[]",
"shopid":"[]",
"shopinfo":"0",
"poiweight":"[]",
"parking_type":null,
"avg_price":null,
"avg_price_type":null
},
{
"id":"B00178UQKV",
"name":"印龙春天百货",
"type":"购物服务;商场;普通商场",
"typecode":"060102",
"biz_type":"[]",
"address":"风情步行街7号楼",
"location":"106.400006,29.802085",
"tel":"13399889695",
"distance":"[]",
"biz_ext":"[]",
"pname":"重庆市",
"cityname":"重庆市",
"adname":"北碚区",
"importance":"[]",
"shopid":"[]",
"shopinfo":"0",
"poiweight":"[]",
"parking_type":null,
"avg_price":null,
"avg_price_type":null
},
{
"id":"B00178UQXS",
"name":"雄风百货广场(云华路)",
"type":"购物服务;商场;普通商场",
"typecode":"060102",
"biz_type":"[]",
"address":"城南嘉陵风情步行街33号",
"location":"106.401712,29.802056",
"tel":"023-60300158",
"distance":"[]",
"biz_ext":"[]",
"pname":"重庆市",
"cityname":"重庆市",
"adname":"北碚区",
"importance":"[]",
"shopid":"[]",
"shopinfo":"0",
"poiweight":"[]",
"parking_type":null,
"avg_price":null,
"avg_price_type":null
},
{
"id":"B00178UR8K",
"name":"鑫源百货(凤栖路店)",
"type":"购物服务;便民商店\/便利店;便民商店\/便利店",
"typecode":"060200",
"biz_type":"[]",
"address":"蔡家镇张家桥凤栖路97号",
"location":"106.464606,29.735068",
"tel":"[]",
"distance":"[]",
"biz_ext":"[]",
"pname":"重庆市",
"cityname":"重庆市",
"adname":"北碚区",
"importance":"[]",
"shopid":"[]",
"shopinfo":"0",
"poiweight":"[]",
"parking_type":null,
"avg_price":null,
"avg_price_type":null
},
{
"id":"B00178URJV",
"name":"先得月副食",
"type":"购物服务;便民商店\/便利店;便民商店\/便利店",
"typecode":"060200",
"biz_type":"[]",
"address":"解放路北巷4-5",
"location":"106.437564,29.828853",
"tel":"[]",
"distance":"[]",
"biz_ext":"[]",
"pname":"重庆市",
"cityname":"重庆市",
"adname":"北碚区",
"importance":"[]",
"shopid":"[]",
"shopinfo":"0",
"poiweight":"[]",
"parking_type":null,
"avg_price":null,
"avg_price_type":null
},
{
"id":"B00178X5F1",
"name":"华伟购物中心",
"type":"购物服务;便民商店\/便利店;便民商店\/便利店",
"typecode":"060200",
"biz_type":"[]",
"address":"歇马盐井坝1号",
"location":"106.376413,29.777270",
"tel":"17784751079",
"distance":"[]",
"biz_ext":"[]",
"pname":"重庆市",
"cityname":"重庆市",
"adname":"北碚区",
"importance":"[]",
"shopid":"[]",
"shopinfo":"0",
"poiweight":"[]",
"parking_type":null,
"avg_price":null,
"avg_price_type":null
},
{
"id":"B00178X8CY",
"name":"勿忘我便民商店(永远村店)",
"type":"购物服务;便民商店\/便利店;便民商店\/便利店",
"typecode":"060200",
"biz_type":"[]",
"address":"296县道东50米",
"location":"106.366652,29.748046",
"tel":"[]",
"distance":"[]",
"biz_ext":"[]",
"pname":"重庆市",
"cityname":"重庆市",
"adname":"北碚区",
"importance":"[]",
"shopid":"[]",
"shopinfo":"0",
"poiweight":"[]",
"parking_type":null,
"avg_price":null,
"avg_price_type":null
},
{
"id":"B00178X9HM",
"name":"华伟购物中心",
"type":"购物服务;便民商店\/便利店;便民商店\/便利店",
"typecode":"060200",
"biz_type":"[]",
"address":"歇马镇盐井坝2号门",
"location":"106.376292,29.774963",
"tel":"023-68348112;023-68243620",
"distance":"[]",
"biz_ext":"[]",
"pname":"重庆市",
"cityname":"重庆市",
"adname":"北碚区",
"importance":"[]",
"shopid":"[]",
"shopinfo":"0",
"poiweight":"[]",
"parking_type":null,
"avg_price":null,
"avg_price_type":null
},
{
"id":"B00178XQNA",
"name":"鑫鸿百货",
"type":"购物服务;便民商店\/便利店;便民商店\/便利店",
"typecode":"060200",
"biz_type":"[]",
"address":"歇马镇小磨滩可可机械厂对面",
"location":"106.351585,29.744885",
"tel":"18166431180",
"distance":"[]",
"biz_ext":"[]",
"pname":"重庆市",
"cityname":"重庆市",
"adname":"北碚区",
"importance":"[]",
"shopid":"[]",
"shopinfo":"[]",
"poiweight":"[]",
"parking_type":null,
"avg_price":null,
"avg_price_type":null
},
{
"id":"B00178XQQ3",
"name":"复兴服务区便利店",
"type":"购物服务;便民商店\/便利店;便民商店\/便利店",
"typecode":"060200",
"biz_type":"[]",
"address":"G5001重庆绕城高速附近",
"location":"106.550748,29.775742",
"tel":"[]",
"distance":"[]",
"biz_ext":"[]",
"pname":"重庆市",
"cityname":"重庆市",
"adname":"北碚区",
"importance":"[]",
"shopid":"[]",
"shopinfo":"0",
"poiweight":"[]",
"parking_type":null,
"avg_price":null,
"avg_price_type":null
},
{
"id":"B00178XQQ5",
"name":"东燕副食(解放路)",
"type":"购物服务;便民商店\/便利店;便民商店\/便利店",
"typecode":"060200",
"biz_type":"[]",
"address":"新村67号",
"location":"106.436851,29.827482",
"tel":"[]",
"distance":"[]",
"biz_ext":"[]",
"pname":"重庆市",
"cityname":"重庆市",
"adname":"北碚区",
"importance":"[]",
"shopid":"[]",
"shopinfo":"0",
"poiweight":"[]",
"parking_type":null,
"avg_price":null,
"avg_price_type":null
},
{
"id":"B00178XRTD",
"name":"佳坊(北碚城南店)",
"type":"购物服务;便民商店\/便利店;便民商店\/便利店",
"typecode":"060200",
"biz_type":"[]",
"address":"城南卢作孚路59号",
"location":"106.392673,29.802836",
"tel":"[]",
"distance":"[]",
"biz_ext":"[]",
"pname":"重庆市",
"cityname":"重庆市",
"adname":"北碚区",
"importance":"[]",
"shopid":"[]",
"shopinfo":"0",
"poiweight":"[]",
"parking_type":null,
"avg_price":null,
"avg_price_type":null
},
{
"id":"B00178XSIP",
"name":"金玉商店(辽宁路)",
"type":"购物服务;便民商店\/便利店;便民商店\/便利店",
"typecode":"060200",
"biz_type":"[]",
"address":"辽宁路91-9",
"location":"106.437179,29.829204",
"tel":"[]",
"distance":"[]",
"biz_ext":"[]",
"pname":"重庆市",
"cityname":"重庆市",
"adname":"北碚区",
"importance":"[]",
"shopid":"[]",
"shopinfo":"0",
"poiweight":"[]",
"parking_type":null,
"avg_price":null,
"avg_price_type":null
},
{
"id":"B00178XSKV",
"name":"方方副食(辽宁路店)",
"type":"购物服务;便民商店\/便利店;便民商店\/便利店",
"typecode":"060200",
"biz_type":"[]",
"address":"辽宁路14号",
"location":"106.439492,29.830515",
"tel":"[]",
"distance":"[]",
"biz_ext":"[]",
"pname":"重庆市",
"cityname":"重庆市",
"adname":"北碚区",
"importance":"[]",
"shopid":"[]",
"shopinfo":"0",
"poiweight":"[]",
"parking_type":null,
"avg_price":null,
"avg_price_type":null
},
{
"id":"B00178XSWO",
"name":"易捷便利店(黄灶公路)",
"type":"购物服务;便民商店\/便利店;便民商店\/便利店",
"typecode":"060200",
"biz_type":"[]",
"address":"代黄路和204省道的交叉口附近",
"location":"106.456540,29.834340",
"tel":"[]",
"distance":"[]",
"biz_ext":"[]",
"pname":"重庆市",
"cityname":"重庆市",
"adname":"北碚区",
"importance":"[]",
"shopid":"[]",
"shopinfo":"0",
"poiweight":"[]",
"parking_type":null,
"avg_price":null,
"avg_price_type":null
},
{
"id":"B00178XT5E",
"name":"天友服务中心(双柏支路)",
"type":"购物服务;便民商店\/便利店;便民商店\/便利店",
"typecode":"060200",
"biz_type":"[]",
"address":"双柏支路32号附近",
"location":"106.404571,29.807531",
"tel":"[]",
"distance":"[]",
"biz_ext":"[]",
"pname":"重庆市",
"cityname":"重庆市",
"adname":"北碚区",
"importance":"[]",
"shopid":"[]",
"shopinfo":"0",
"poiweight":"[]",
"parking_type":null,
"avg_price":null,
"avg_price_type":null
},
{
"id":"B001790OER",
"name":"勿忘我便民店(陈红分店)",
"type":"购物服务;便民商店\/便利店;便民商店\/便利店",
"typecode":"060200",
"biz_type":"[]",
"address":"陵峡路18号",
"location":"106.476685,29.784895",
"tel":"023-68268872",
"distance":"[]",
"biz_ext":"[]",
"pname":"重庆市",
"cityname":"重庆市",
"adname":"北碚区",
"importance":"[]",
"shopid":"[]",
"shopinfo":"0",
"poiweight":"[]",
"parking_type":null,
"avg_price":null,
"avg_price_type":null
},
{
"id":"B001790T1V",
"name":"天友乳业副食店",
"type":"购物服务;便民商店\/便利店;便民商店\/便利店",
"typecode":"060200",
"biz_type":"[]",
"address":"燎原派出所西50米佳佳超市旁",
"location":"106.434854,29.810069",
"tel":"[]",
"distance":"[]",
"biz_ext":"[]",
"pname":"重庆市",
"cityname":"重庆市",
"adname":"北碚区",
"importance":"[]",
"shopid":"[]",
"shopinfo":"0",
"poiweight":"[]",
"parking_type":null,
"avg_price":null,
"avg_price_type":null
},
{
"id":"B001791S4J",
"name":"泰豪百货(水土园区店)",
"type":"购物服务;便民商店\/便利店;便民商店\/便利店",
"typecode":"060200",
"biz_type":"[]",
"address":"兴国路与293县道交叉口东南100米",
"location":"106.523694,29.832161",
"tel":"023-68230316",
"distance":"[]",
"biz_ext":"[]",
"pname":"重庆市",
"cityname":"重庆市",
"adname":"北碚区",
"importance":"[]",
"shopid":"[]",
"shopinfo":"0",
"poiweight":"[]",
"parking_type":null,
"avg_price":null,
"avg_price_type":null
},
{
"id":"B001792IMM",
"name":"天府副食",
"type":"购物服务;便民商店\/便利店;便民商店\/便利店",
"typecode":"060200",
"biz_type":"[]",
"address":"牌坊湾2号附1号",
"location":"106.445530,29.825564",
"tel":"[]",
"distance":"[]",
"biz_ext":"[]",
"pname":"重庆市",
"cityname":"重庆市",
"adname":"北碚区",
"importance":"[]",
"shopid":"[]",
"shopinfo":"0",
"poiweight":"[]",
"parking_type":null,
"avg_price":null,
"avg_price_type":null
},
{
"id":"B001792M6E",
"name":"创新百货(北碚店)",
"type":"购物服务;便民商店\/便利店;便民商店\/便利店",
"typecode":"060200",
"biz_type":"[]",
"address":"云泉路78号",
"location":"106.434101,29.824004",
"tel":"[]",
"distance":"[]",
"biz_ext":"[]",
"pname":"重庆市",
"cityname":"重庆市",
"adname":"北碚区",
"importance":"[]",
"shopid":"[]",
"shopinfo":"0",
"poiweight":"[]",
"parking_type":null,
"avg_price":null,
"avg_price_type":null
},
{
"id":"B001792MMQ",
"name":"金鼎百货商场",
"type":"购物服务;超级市场;超市",
"typecode":"060400",
"biz_type":"[]",
"address":"歇马路1号附4号",
"location":"106.372660,29.765640",
"tel":"[]",
"distance":"[]",
"biz_ext":"[]",
"pname":"重庆市",
"cityname":"重庆市",
"adname":"北碚区",
"importance":"[]",
"shopid":"[]",
"shopinfo":"0",
"poiweight":"[]",
"parking_type":null,
"avg_price":null,
"avg_price_type":null
},
{
"id":"B001792NKT",
"name":"刘琼副食",
"type":"购物服务;便民商店\/便利店;便民商店\/便利店",
"typecode":"060200",
"biz_type":"[]",
"address":"渔塘湾264附1号",
"location":"106.439727,29.820301",
"tel":"[]",
"distance":"[]",
"biz_ext":"[]",
"pname":"重庆市",
"cityname":"重庆市",
"adname":"北碚区",
"importance":"[]",
"shopid":"[]",
"shopinfo":"0",
"poiweight":"[]",
"parking_type":null,
"avg_price":null,
"avg_price_type":null
},
{
"id":"B001793N4X",
"name":"勿忘我(团山堡店)",
"type":"购物服务;便民商店\/便利店;便民商店\/便利店",
"typecode":"060200",
"biz_type":"[]",
"address":"北温泉257号8-2附1号",
"location":"106.426071,29.832275",
"tel":"[]",
"distance":"[]",
"biz_ext":"[]",
"pname":"重庆市",
"cityname":"重庆市",
"adname":"北碚区",
"importance":"[]",
"shopid":"[]",
"shopinfo":"0",
"poiweight":"[]",
"parking_type":null,
"avg_price":null,
"avg_price_type":null
},
{
"id":"B0017947AO",
"name":"君雪副食",
"type":"购物服务;便民商店\/便利店;便民商店\/便利店",
"typecode":"060200",
"biz_type":"[]",
"address":"粮食路南50米",
"location":"106.446090,29.825637",
"tel":"[]",
"distance":"[]",
"biz_ext":"[]",
"pname":"重庆市",
"cityname":"重庆市",
"adname":"北碚区",
"importance":"[]",
"shopid":"[]",
"shopinfo":"0",
"poiweight":"[]",
"parking_type":null,
"avg_price":null,
"avg_price_type":null
},
{
"id":"B0017947H2",
"name":"红运副食",
"type":"购物服务;便民商店\/便利店;便民商店\/便利店",
"typecode":"060200",
"biz_type":"[]",
"address":"粮食路西50米",
"location":"106.446170,29.823223",
"tel":"[]",
"distance":"[]",
"biz_ext":"[]",
"pname":"重庆市",
"cityname":"重庆市",
"adname":"北碚区",
"importance":"[]",
"shopid":"[]",
"shopinfo":"0",
"poiweight":"[]",
"parking_type":null,
"avg_price":null,
"avg_price_type":null
},
{
"id":"B0017947Q4",
"name":"荣霞副食",
"type":"购物服务;便民商店\/便利店;便民商店\/便利店",
"typecode":"060200",
"biz_type":"[]",
"address":"天生路与云泉路交叉口西南100米",
"location":"106.432899,29.823938",
"tel":"[]",
"distance":"[]",
"biz_ext":"[]",
"pname":"重庆市",
"cityname":"重庆市",
"adname":"北碚区",
"importance":"[]",
"shopid":"[]",
"shopinfo":"0",
"poiweight":"[]",
"parking_type":null,
"avg_price":null,
"avg_price_type":null
},
{
"id":"B0017947QI",
"name":"琴红副食",
"type":"购物服务;便民商店\/便利店;便民商店\/便利店",
"typecode":"060200",
"biz_type":"[]",
"address":"河嘉村303号",
"location":"106.446213,29.822950",
"tel":"[]",
"distance":"[]",
"biz_ext":"[]",
"pname":"重庆市",
"cityname":"重庆市",
"adname":"北碚区",
"importance":"[]",
"shopid":"[]",
"shopinfo":"0",
"poiweight":"[]",
"parking_type":null,
"avg_price":null,
"avg_price_type":null
},
{
"id":"B00179482D",
"name":"四姐副食",
"type":"购物服务;便民商店\/便利店;便民商店\/便利店",
"typecode":"060200",
"biz_type":"[]",
"address":"渔塘湾29号",
"location":"106.439132,29.819944",
"tel":"[]",
"distance":"[]",
"biz_ext":"[]",
"pname":"重庆市",
"cityname":"重庆市",
"adname":"北碚区",
"importance":"[]",
"shopid":"[]",
"shopinfo":"0",
"poiweight":"[]",
"parking_type":null,
"avg_price":null,
"avg_price_type":null
},
{
"id":"B00179486C",
"name":"群联副食",
"type":"购物服务;便民商店\/便利店;便民商店\/便利店",
"typecode":"060200",
"biz_type":"[]",
"address":"中山路80号",
"location":"106.436500,29.825037",
"tel":"[]",
"distance":"[]",
"biz_ext":"[]",
"pname":"重庆市",
"cityname":"重庆市",
"adname":"北碚区",
"importance":"[]",
"shopid":"[]",
"shopinfo":"0",
"poiweight":"[]",
"parking_type":null,
"avg_price":null,
"avg_price_type":null
},
{
"id":"B00179489I",
"name":"滨江副食(碚峡路)",
"type":"购物服务;便民商店\/便利店;便民商店\/便利店",
"typecode":"060200",
"biz_type":"[]",
"address":"朝阳街道碚峡路48号",
"location":"106.444549,29.828220",
"tel":"[]",
"distance":"[]",
"biz_ext":"[]",
"pname":"重庆市",
"cityname":"重庆市",
"adname":"北碚区",
"importance":"[]",
"shopid":"[]",
"shopinfo":"0",
"poiweight":"[]",
"parking_type":null,
"avg_price":null,
"avg_price_type":null
},
{
"id":"B0017948CS",
"name":"祖云副食",
"type":"购物服务;便民商店\/便利店;便民商店\/便利店",
"typecode":"060200",
"biz_type":"[]",
"address":"碚峡路161号附近",
"location":"106.441406,29.823375",
"tel":"[]",
"distance":"[]",
"biz_ext":"[]",
"pname":"重庆市",
"cityname":"重庆市",
"adname":"北碚区",
"importance":"[]",
"shopid":"[]",
"shopinfo":"0",
"poiweight":"[]",
"parking_type":null,
"avg_price":null,
"avg_price_type":null
},
{
"id":"B001794B2T",
"name":"兴鑫副食(团山一路)",
"type":"购物服务;便民商店\/便利店;便民商店\/便利店",
"typecode":"060200",
"biz_type":"[]",
"address":"北温泉街道团山堡金华支路4号",
"location":"106.425834,29.829854",
"tel":"[]",
"distance":"[]",
"biz_ext":"[]",
"pname":"重庆市",
"cityname":"重庆市",
"adname":"北碚区",
"importance":"[]",
"shopid":"[]",
"shopinfo":"0",
"poiweight":"[]",
"parking_type":null,
"avg_price":null,
"avg_price_type":null
},
{
"id":"B001794H2D",
"name":"文盛副食",
"type":"购物服务;便民商店\/便利店;便民商店\/便利店",
"typecode":"060200",
"biz_type":"[]",
"address":"龙溪路康乐茶园旁",
"location":"106.430534,29.819576",
"tel":"[]",
"distance":"[]",
"biz_ext":"[]",
"pname":"重庆市",
"cityname":"重庆市",
"adname":"北碚区",
"importance":"[]",
"shopid":"[]",
"shopinfo":"0",
"poiweight":"[]",
"parking_type":null,
"avg_price":null,
"avg_price_type":null
},
{
"id":"B001794HMA",
"name":"红红副食",
"type":"购物服务;便民商店\/便利店;便民商店\/便利店",
"typecode":"060200",
"biz_type":"[]",
"address":"东阳镇天府丽正1号门",
"location":"106.452110,29.844679",
"tel":"[]",
"distance":"[]",
"biz_ext":"[]",
"pname":"重庆市",
"cityname":"重庆市",
"adname":"北碚区",
"importance":"[]",
"shopid":"[]",
"shopinfo":"0",
"poiweight":"[]",
"parking_type":null,
"avg_price":null,
"avg_price_type":null
},
{
"id":"B001794HV7",
"name":"128副食",
"type":"购物服务;便民商店\/便利店;便民商店\/便利店",
"typecode":"060200",
"biz_type":"[]",
"address":"中山路128附1号",
"location":"106.434837,29.825309",
"tel":"[]",
"distance":"[]",
"biz_ext":"[]",
"pname":"重庆市",
"cityname":"重庆市",
"adname":"北碚区",
"importance":"[]",
"shopid":"[]",
"shopinfo":"0",
"poiweight":"[]",
"parking_type":null,
"avg_price":null,
"avg_price_type":null
},
{
"id":"B001794HYG",
"name":"陆真便利店",
"type":"购物服务;便民商店\/便利店;便民商店\/便利店",
"typecode":"060200",
"biz_type":"[]",
"address":"渝南路东50米",
"location":"106.462140,29.756089",
"tel":"[]",
"distance":"[]",
"biz_ext":"[]",
"pname":"重庆市",
"cityname":"重庆市",
"adname":"北碚区",
"importance":"[]",
"shopid":"[]",
"shopinfo":"0",
"poiweight":"[]",
"parking_type":null,
"avg_price":null,
"avg_price_type":null
},
{
"id":"B001794ILW",
"name":"常友副食经营部",
"type":"购物服务;便民商店\/便利店;便民商店\/便利店",
"typecode":"060200",
"biz_type":"[]",
"address":"双元大道东50米",
"location":"106.378840,29.774560",
"tel":"[]",
"distance":"[]",
"biz_ext":"[]",
"pname":"重庆市",
"cityname":"重庆市",
"adname":"北碚区",
"importance":"[]",
"shopid":"[]",
"shopinfo":"0",
"poiweight":"[]",
"parking_type":null,
"avg_price":null,
"avg_price_type":null
},
{
"id":"B001795EY1",
"name":"加油站-便利店",
"type":"购物服务;便民商店\/便利店;便民商店\/便利店",
"typecode":"060200",
"biz_type":"[]",
"address":"三溪口互通与渝南路交叉口南150米",
"location":"106.456520,29.722754",
"tel":"[]",
"distance":"[]",
"biz_ext":"[]",
"pname":"重庆市",
"cityname":"重庆市",
"adname":"北碚区",
"importance":"[]",
"shopid":"[]",
"shopinfo":"0",
"poiweight":"[]",
"parking_type":null,
"avg_price":null,
"avg_price_type":null
},
{
"id":"B001795XBL",
"name":"海屋副食",
"type":"购物服务;便民商店\/便利店;便民商店\/便利店",
"typecode":"060200",
"biz_type":"[]",
"address":"劳动村4号附9号",
"location":"106.437118,29.819459",
"tel":"023-86038146",
"distance":"[]",
"biz_ext":"[]",
"pname":"重庆市",
"cityname":"重庆市",
"adname":"北碚区",
"importance":"[]",
"shopid":"[]",
"shopinfo":"0",
"poiweight":"[]",
"parking_type":null,
"avg_price":null,
"avg_price_type":null
},
{
"id":"B001796C1V",
"name":"便利店",
"type":"购物服务;便民商店\/便利店;便民商店\/便利店",
"typecode":"060200",
"biz_type":"[]",
"address":"渝南路西50米",
"location":"106.455380,29.731780",
"tel":"[]",
"distance":"[]",
"biz_ext":"[]",
"pname":"重庆市",
"cityname":"重庆市",
"adname":"北碚区",
"importance":"[]",
"shopid":"[]",
"shopinfo":"[]",
"poiweight":"[]",
"parking_type":null,
"avg_price":null,
"avg_price_type":null
},
{
"id":"B001796G30",
"name":"兴旺副食店(中山路)",
"type":"购物服务;便民商店\/便利店;便民商店\/便利店",
"typecode":"060200",
"biz_type":"[]",
"address":"天生路与中山路交叉口东南150米",
"location":"106.435241,29.824443",
"tel":"023-68205761",
"distance":"[]",
"biz_ext":"[]",
"pname":"重庆市",
"cityname":"重庆市",
"adname":"北碚区",
"importance":"[]",
"shopid":"[]",
"shopinfo":"0",
"poiweight":"[]",
"parking_type":null,
"avg_price":null,
"avg_price_type":null
},
{
"id":"B001796U37",
"name":"新星日杂百货",
"type":"购物服务;便民商店\/便利店;便民商店\/便利店",
"typecode":"060200",
"biz_type":"[]",
"address":"奔月路与新星路交叉口西北50米",
"location":"106.433403,29.819969",
"tel":"[]",
"distance":"[]",
"biz_ext":"[]",
"pname":"重庆市",
"cityname":"重庆市",
"adname":"北碚区",
"importance":"[]",
"shopid":"[]",
"shopinfo":"0",
"poiweight":"[]",
"parking_type":null,
"avg_price":null,
"avg_price_type":null
},
{
"id":"B001797L2M",
"name":"水贸副食批发",
"type":"购物服务;便民商店\/便利店;便民商店\/便利店",
"typecode":"060200",
"biz_type":"[]",
"address":"水土镇解放路14号",
"location":"106.500329,29.776932",
"tel":"023-68232008;13452816522",
"distance":"[]",
"biz_ext":"[]",
"pname":"重庆市",
"cityname":"重庆市",
"adname":"北碚区",
"importance":"[]",
"shopid":"[]",
"shopinfo":"0",
"poiweight":"[]",
"parking_type":null,
"avg_price":null,
"avg_price_type":null
},
{
"id":"B001799H4B",
"name":"勿忘我便民商店",
"type":"购物服务;便民商店\/便利店;便民商店\/便利店",
"typecode":"060200",
"biz_type":"[]",
"address":"施家梁镇陵峡路119号能安公交车站",
"location":"106.465880,29.764780",
"tel":"[]",
"distance":"[]",
"biz_ext":"[]",
"pname":"重庆市",
"cityname":"重庆市",
"adname":"北碚区",
"importance":"[]",
"shopid":"[]",
"shopinfo":"0",
"poiweight":"[]",
"parking_type":null,
"avg_price":null,
"avg_price_type":null
},
{
"id":"B001799W8O",
"name":"佳辉副食",
"type":"购物服务;便民商店\/便利店;便民商店\/便利店",
"typecode":"060200",
"biz_type":"[]",
"address":"蔡家横街59号附近",
"location":"106.474845,29.732155",
"tel":"[]",
"distance":"[]",
"biz_ext":"[]",
"pname":"重庆市",
"cityname":"重庆市",
"adname":"北碚区",
"importance":"[]",
"shopid":"[]",
"shopinfo":"0",
"poiweight":"[]",
"parking_type":null,
"avg_price":null,
"avg_price_type":null
},
{
"id":"B00179BSMC",
"name":"鹏飞副食",
"type":"购物服务;便民商店\/便利店;便民商店\/便利店",
"typecode":"060200",
"biz_type":"[]",
"address":"将军路旺鑫超市旁",
"location":"106.411246,29.803270",
"tel":"[]",
"distance":"[]",
"biz_ext":"[]",
"pname":"重庆市",
"cityname":"重庆市",
"adname":"北碚区",
"importance":"[]",
"shopid":"[]",
"shopinfo":"0",
"poiweight":"[]",
"parking_type":null,
"avg_price":null,
"avg_price_type":null
},
{
"id":"B0FFF020B0",
"name":"一表堂",
"type":"购物服务;便民商店\/便利店;便民商店\/便利店",
"typecode":"060200",
"biz_type":"[]",
"address":"北温泉街道团山堡金华路25号城北第一超市(的士快餐隔壁)",
"location":"106.427101,29.831533",
"tel":"[]",
"distance":"[]",
"biz_ext":"[]",
"pname":"重庆市",
"cityname":"重庆市",
"adname":"北碚区",
"importance":"[]",
"shopid":"[]",
"shopinfo":"0",
"poiweight":"[]",
"parking_type":null,
"avg_price":null,
"avg_price_type":null
},
{
"id":"B0FFF02ASS",
"name":"云山副食",
"type":"购物服务;便民商店\/便利店;便民商店\/便利店",
"typecode":"060200",
"biz_type":"[]",
"address":"北泉路295号附近",
"location":"106.420532,29.832456",
"tel":"[]",
"distance":"[]",
"biz_ext":"[]",
"pname":"重庆市",
"cityname":"重庆市",
"adname":"北碚区",
"importance":"[]",
"shopid":"[]",
"shopinfo":"0",
"poiweight":"[]",
"parking_type":null,
"avg_price":null,
"avg_price_type":null
},
{
"id":"B0FFF038AT",
"name":"团山副食",
"type":"购物服务;便民商店\/便利店;便民商店\/便利店",
"typecode":"060200",
"biz_type":"[]",
"address":"团山路12号",
"location":"106.425360,29.831232",
"tel":"[]",
"distance":"[]",
"biz_ext":"[]",
"pname":"重庆市",
"cityname":"重庆市",
"adname":"北碚区",
"importance":"[]",
"shopid":"[]",
"shopinfo":"0",
"poiweight":"[]",
"parking_type":null,
"avg_price":null,
"avg_price_type":null
},
{
"id":"B0FFF0399N",
"name":"家富冷食",
"type":"购物服务;便民商店\/便利店;便民商店\/便利店",
"typecode":"060200",
"biz_type":"[]",
"address":"文星村3号",
"location":"106.434463,29.832172",
"tel":"023-68213596",
"distance":"[]",
"biz_ext":"[]",
"pname":"重庆市",
"cityname":"重庆市",
"adname":"北碚区",
"importance":"[]",
"shopid":"[]",
"shopinfo":"0",
"poiweight":"[]",
"parking_type":null,
"avg_price":null,
"avg_price_type":null
},
{
"id":"B0FFF03P3B",
"name":"鑫州副食",
"type":"购物服务;便民商店\/便利店;便民商店\/便利店",
"typecode":"060200",
"biz_type":"[]",
"address":"北泉路29号",
"location":"106.428520,29.832431",
"tel":"[]",
"distance":"[]",
"biz_ext":"[]",
"pname":"重庆市",
"cityname":"重庆市",
"adname":"北碚区",
"importance":"[]",
"shopid":"[]",
"shopinfo":"0",
"poiweight":"[]",
"parking_type":null,
"avg_price":null,
"avg_price_type":null
},
{
"id":"B0FFF0462T",
"name":"龙江副食",
"type":"购物服务;便民商店\/便利店;便民商店\/便利店",
"typecode":"060200",
"biz_type":"[]",
"address":"黑龙江巷35-6号",
"location":"106.435524,29.829117",
"tel":"[]",
"distance":"[]",
"biz_ext":"[]",
"pname":"重庆市",
"cityname":"重庆市",
"adname":"北碚区",
"importance":"[]",
"shopid":"[]",
"shopinfo":"0",
"poiweight":"[]",
"parking_type":null,
"avg_price":null,
"avg_price_type":null
},
{
"id":"B0FFF04XBA",
"name":"雅馨副食",
"type":"购物服务;便民商店\/便利店;便民商店\/便利店",
"typecode":"060200",
"biz_type":"[]",
"address":"北温泉街道西师附中新桥村20-3",
"location":"106.429496,29.833879",
"tel":"[]",
"distance":"[]",
"biz_ext":"[]",
"pname":"重庆市",
"cityname":"重庆市",
"adname":"北碚区",
"importance":"[]",
"shopid":"[]",
"shopinfo":"0",
"poiweight":"[]",
"parking_type":null,
"avg_price":null,
"avg_price_type":null
},
{
"id":"B0FFF05EG6",
"name":"万和商行",
"type":"购物服务;便民商店\/便利店;便民商店\/便利店",
"typecode":"060200",
"biz_type":"[]",
"address":"东风街21号",
"location":"106.372050,29.764238",
"tel":"13368011801",
"distance":"[]",
"biz_ext":"[]",
"pname":"重庆市",
"cityname":"重庆市",
"adname":"北碚区",
"importance":"[]",
"shopid":"[]",
"shopinfo":"0",
"poiweight":"[]",
"parking_type":null,
"avg_price":null,
"avg_price_type":null
},
{
"id":"B0FFF0L7DL",
"name":"灿灿副食",
"type":"购物服务;便民商店\/便利店;便民商店\/便利店",
"typecode":"060200",
"biz_type":"[]",
"address":"北温泉街道金华路77号",
"location":"106.426687,29.830956",
"tel":"13896049396",
"distance":"[]",
"biz_ext":"[]",
"pname":"重庆市",
"cityname":"重庆市",
"adname":"北碚区",
"importance":"[]",
"shopid":"[]",
"shopinfo":"0",
"poiweight":"[]",
"parking_type":null,
"avg_price":null,
"avg_price_type":null
},
{
"id":"B0FFF2EE0N",
"name":"早行人",
"type":"购物服务;便民商店\/便利店;便民商店\/便利店",
"typecode":"060200",
"biz_type":"[]",
"address":"北泉路与团山三路交叉口西北50米",
"location":"106.424758,29.832412",
"tel":"[]",
"distance":"[]",
"biz_ext":"[]",
"pname":"重庆市",
"cityname":"重庆市",
"adname":"北碚区",
"importance":"[]",
"shopid":"[]",
"shopinfo":"0",
"poiweight":"[]",
"parking_type":null,
"avg_price":null,
"avg_price_type":null
},
{
"id":"B0FFF2GT3L",
"name":"平康副食",
"type":"购物服务;便民商店\/便利店;便民商店\/便利店",
"typecode":"060200",
"biz_type":"[]",
"address":"北温泉街道华光小区商业门市",
"location":"106.404944,29.815057",
"tel":"[]",
"distance":"[]",
"biz_ext":"[]",
"pname":"重庆市",
"cityname":"重庆市",
"adname":"北碚区",
"importance":"[]",
"shopid":"[]",
"shopinfo":"0",
"poiweight":"[]",
"parking_type":null,
"avg_price":null,
"avg_price_type":null
},
{
"id":"B0FFF2ID7G",
"name":"圆梦便利店",
"type":"购物服务;购物相关场所;购物相关场所",
"typecode":"060000",
"biz_type":"[]",
"address":"粮食路东150米",
"location":"106.447586,29.822989",
"tel":"13212450496",
"distance":"[]",
"biz_ext":"[]",
"pname":"重庆市",
"cityname":"重庆市",
"adname":"北碚区",
"importance":"[]",
"shopid":"[]",
"shopinfo":"0",
"poiweight":"[]",
"parking_type":null,
"avg_price":null,
"avg_price_type":null
},
{
"id":"B0FFF2JR3A",
"name":"陈平副食",
"type":"购物服务;购物相关场所;购物相关场所",
"typecode":"060000",
"biz_type":"[]",
"address":"歇马镇歇马路57-11号",
"location":"106.369792,29.763361",
"tel":"023-68245218",
"distance":"[]",
"biz_ext":"[]",
"pname":"重庆市",
"cityname":"重庆市",
"adname":"北碚区",
"importance":"[]",
"shopid":"[]",
"shopinfo":"0",
"poiweight":"[]",
"parking_type":null,
"avg_price":null,
"avg_price_type":null
},
{
"id":"B0FFF2K9HW",
"name":"周勇副食(金华路)",
"type":"购物服务;便民商店\/便利店;便民商店\/便利店",
"typecode":"060200",
"biz_type":"[]",
"address":"金华路270号",
"location":"106.419761,29.828203",
"tel":"[]",
"distance":"[]",
"biz_ext":"[]",
"pname":"重庆市",
"cityname":"重庆市",
"adname":"北碚区",
"importance":"[]",
"shopid":"[]",
"shopinfo":"0",
"poiweight":"[]",
"parking_type":null,
"avg_price":null,
"avg_price_type":null
},
{
"id":"B0FFF2KSG0",
"name":"好邻居副食(园丁路)",
"type":"购物服务;便民商店\/便利店;便民商店\/便利店",
"typecode":"060200",
"biz_type":"[]",
"address":"园丁路26号",
"location":"106.425445,29.833047",
"tel":"[]",
"distance":"[]",
"biz_ext":"[]",
"pname":"重庆市",
"cityname":"重庆市",
"adname":"北碚区",
"importance":"[]",
"shopid":"[]",
"shopinfo":"0",
"poiweight":"[]",
"parking_type":null,
"avg_price":null,
"avg_price_type":null
},
{
"id":"B0FFF2VUCP",
"name":"天天百货",
"type":"购物服务;综合市场;综合市场",
"typecode":"060700",
"biz_type":"[]",
"address":"金华路278号",
"location":"106.419631,29.828105",
"tel":"[]",
"distance":"[]",
"biz_ext":"[]",
"pname":"重庆市",
"cityname":"重庆市",
"adname":"北碚区",
"importance":"[]",
"shopid":"[]",
"shopinfo":"0",
"poiweight":"[]",
"parking_type":null,
"avg_price":null,
"avg_price_type":null
},
{
"id":"B0FFF2X7I1",
"name":"天生富达副食经营部",
"type":"购物服务;便民商店\/便利店;便民商店\/便利店",
"typecode":"060200",
"biz_type":"[]",
"address":"嘉陵村116附9号",
"location":"106.443885,29.819385",
"tel":"023-68218149",
"distance":"[]",
"biz_ext":"[]",
"pname":"重庆市",
"cityname":"重庆市",
"adname":"北碚区",
"importance":"[]",
"shopid":"[]",
"shopinfo":"0",
"poiweight":"[]",
"parking_type":null,
"avg_price":null,
"avg_price_type":null
},
{
"id":"B0FFF3005R",
"name":"城北桥头副食",
"type":"购物服务;便民商店\/便利店;便民商店\/便利店",
"typecode":"060200",
"biz_type":"[]",
"address":"北温泉街道北泉路1号",
"location":"106.429191,29.832584",
"tel":"[]",
"distance":"[]",
"biz_ext":"[]",
"pname":"重庆市",
"cityname":"重庆市",
"adname":"北碚区",
"importance":"[]",
"shopid":"[]",
"shopinfo":"0",
"poiweight":"[]",
"parking_type":null,
"avg_price":null,
"avg_price_type":null
},
{
"id":"B0FFF3411B",
"name":"壳牌便利店(三溪花园南)",
"type":"购物服务;便民商店\/便利店;便民商店\/便利店",
"typecode":"060200",
"biz_type":"[]",
"address":"渝南路东50米",
"location":"106.462166,29.756149",
"tel":"[]",
"distance":"[]",
"biz_ext":"[]",
"pname":"重庆市",
"cityname":"重庆市",
"adname":"北碚区",
"importance":"[]",
"shopid":"[]",
"shopinfo":"0",
"poiweight":"[]",
"parking_type":null,
"avg_price":null,
"avg_price_type":null
},
{
"id":"B0FFF3417W",
"name":"施家梁勿忘我便民店",
"type":"购物服务;便民商店\/便利店;便民商店\/便利店",
"typecode":"060200",
"biz_type":"[]",
"address":"施家梁政府对面",
"location":"106.477423,29.784594",
"tel":"023-68268872",
"distance":"[]",
"biz_ext":"[]",
"pname":"重庆市",
"cityname":"重庆市",
"adname":"北碚区",
"importance":"[]",
"shopid":"[]",
"shopinfo":"0",
"poiweight":"[]",
"parking_type":null,
"avg_price":null,
"avg_price_type":null
},
{
"id":"B0FFF3OXUF",
"name":"何黎副食店",
"type":"购物服务;便民商店\/便利店;便民商店\/便利店",
"typecode":"060200",
"biz_type":"[]",
"address":"圣兴路与复兴街交叉口东150米",
"location":"106.563072,29.816696",
"tel":"023-68314275",
"distance":"[]",
"biz_ext":"[]",
"pname":"重庆市",
"cityname":"重庆市",
"adname":"北碚区",
"importance":"[]",
"shopid":"[]",
"shopinfo":"0",
"poiweight":"[]",
"parking_type":null,
"avg_price":null,
"avg_price_type":null
},
{
"id":"B0FFF3OXUH",
"name":"勿忘我便民商店(滩复公路)",
"type":"购物服务;便民商店\/便利店;便民商店\/便利店",
"typecode":"060200",
"biz_type":"[]",
"address":"滩复公路东50米",
"location":"106.555533,29.823560",
"tel":"[]",
"distance":"[]",
"biz_ext":"[]",
"pname":"重庆市",
"cityname":"重庆市",
"adname":"北碚区",
"importance":"[]",
"shopid":"[]",
"shopinfo":"0",
"poiweight":"[]",
"parking_type":null,
"avg_price":null,
"avg_price_type":null
},
{
"id":"B0FFF3OZS2",
"name":"杨芳龙王副食",
"type":"购物服务;便民商店\/便利店;便民商店\/便利店",
"typecode":"060200",
"biz_type":"[]",
"address":"龙王街西50米",
"location":"106.592167,29.843574",
"tel":"[]",
"distance":"[]",
"biz_ext":"[]",
"pname":"重庆市",
"cityname":"重庆市",
"adname":"北碚区",
"importance":"[]",
"shopid":"[]",
"shopinfo":"0",
"poiweight":"[]",
"parking_type":null,
"avg_price":null,
"avg_price_type":null
},
{
"id":"B0FFF3P196",
"name":"冯兵副食批发部",
"type":"购物服务;便民商店\/便利店;便民商店\/便利店",
"typecode":"060200",
"biz_type":"[]",
"address":"童家溪镇同兴南路10号",
"location":"106.448297,29.680348",
"tel":"023-68278522",
"distance":"[]",
"biz_ext":"[]",
"pname":"重庆市",
"cityname":"重庆市",
"adname":"北碚区",
"importance":"[]",
"shopid":"[]",
"shopinfo":"0",
"poiweight":"[]",
"parking_type":null,
"avg_price":null,
"avg_price_type":null
},
{
"id":"B0FFF3P2NH",
"name":"昆仑好客便利店(同熙路)",
"type":"购物服务;便民商店\/便利店;便民商店\/便利店",
"typecode":"060200",
"biz_type":"[]",
"address":"[]",
"location":"106.470529,29.736407",
"tel":"[]",
"distance":"[]",
"biz_ext":"[]",
"pname":"重庆市",
"cityname":"重庆市",
"adname":"北碚区",
"importance":"[]",
"shopid":"[]",
"shopinfo":"0",
"poiweight":"[]",
"parking_type":null,
"avg_price":null,
"avg_price_type":null
},
{
"id":"B0FFF4QRIO",
"name":"诚信副食",
"type":"购物服务;便民商店\/便利店;便民商店\/便利店",
"typecode":"060200",
"biz_type":"[]",
"address":"北泉支路22号",
"location":"106.425621,29.831451",
"tel":"023-68203269",
"distance":"[]",
"biz_ext":"[]",
"pname":"重庆市",
"cityname":"重庆市",
"adname":"北碚区",
"importance":"[]",
"shopid":"[]",
"shopinfo":"0",
"poiweight":"[]",
"parking_type":null,
"avg_price":null,
"avg_price_type":null
},
{
"id":"B0FFF5W1D3",
"name":"团山堡服务区易捷便利店",
"type":"购物服务;便民商店\/便利店;便民商店\/便利店",
"typecode":"060200",
"biz_type":"[]",
"address":"云山花园旁团山堡服务区",
"location":"106.419190,29.834122",
"tel":"[]",
"distance":"[]",
"biz_ext":"[]",
"pname":"重庆市",
"cityname":"重庆市",
"adname":"北碚区",
"importance":"[]",
"shopid":"[]",
"shopinfo":"0",
"poiweight":"[]",
"parking_type":null,
"avg_price":null,
"avg_price_type":null
},
{
"id":"B0FFFDVOJW",
"name":"容容副食(上海路)",
"type":"购物服务;便民商店\/便利店;便民商店\/便利店",
"typecode":"060200",
"biz_type":"[]",
"address":"文星湾新房子社区193号",
"location":"106.441360,29.830688",
"tel":"[]",
"distance":"[]",
"biz_ext":"[]",
"pname":"重庆市",
"cityname":"重庆市",
"adname":"北碚区",
"importance":"[]",
"shopid":"[]",
"shopinfo":"0",
"poiweight":"[]",
"parking_type":null,
"avg_price":null,
"avg_price_type":null
},
{
"id":"B0FFFDZE1Y",
"name":"便民杂货店",
"type":"购物服务;便民商店\/便利店;便民商店\/便利店",
"typecode":"060200",
"biz_type":"[]",
"address":"将军路442号",
"location":"106.411580,29.804032",
"tel":"[]",
"distance":"[]",
"biz_ext":"[]",
"pname":"重庆市",
"cityname":"重庆市",
"adname":"北碚区",
"importance":"[]",
"shopid":"[]",
"shopinfo":"0",
"poiweight":"[]",
"parking_type":null,
"avg_price":null,
"avg_price_type":null
},
{
"id":"B0FFFDZGLP",
"name":"玲玲副食(将军路)",
"type":"购物服务;便民商店\/便利店;便民商店\/便利店",
"typecode":"060200",
"biz_type":"[]",
"address":"将军路548号",
"location":"106.410552,29.803693",
"tel":"[]",
"distance":"[]",
"biz_ext":"[]",
"pname":"重庆市",
"cityname":"重庆市",
"adname":"北碚区",
"importance":"[]",
"shopid":"[]",
"shopinfo":"0",
"poiweight":"[]",
"parking_type":null,
"avg_price":null,
"avg_price_type":null
},
{
"id":"B0FFFE0I4S",
"name":"杏花春副食批发",
"type":"购物服务;便民商店\/便利店;便民商店\/便利店",
"typecode":"060200",
"biz_type":"[]",
"address":"东风街46附近",
"location":"106.372010,29.764057",
"tel":"023-86022647",
"distance":"[]",
"biz_ext":"[]",
"pname":"重庆市",
"cityname":"重庆市",
"adname":"北碚区",
"importance":"[]",
"shopid":"[]",
"shopinfo":"0",
"poiweight":"[]",
"parking_type":null,
"avg_price":null,
"avg_price_type":null
},
{
"id":"B0FFFE0MDD",
"name":"永顺便利店",
"type":"购物服务;超级市场;超市",
"typecode":"060400",
"biz_type":"[]",
"address":"解放路50号",
"location":"106.438820,29.829875",
"tel":"[]",
"distance":"[]",
"biz_ext":"[]",
"pname":"重庆市",
"cityname":"重庆市",
"adname":"北碚区",
"importance":"[]",
"shopid":"[]",
"shopinfo":"0",
"poiweight":"[]",
"parking_type":null,
"avg_price":null,
"avg_price_type":null
},
{
"id":"B0FFFE0RJA",
"name":"雅居阁日用品",
"type":"购物服务;便民商店\/便利店;便民商店\/便利店",
"typecode":"060200",
"biz_type":"[]",
"address":"双柏支路169号附近",
"location":"106.404869,29.807975",
"tel":"[]",
"distance":"[]",
"biz_ext":"[]",
"pname":"重庆市",
"cityname":"重庆市",
"adname":"北碚区",
"importance":"[]",
"shopid":"[]",
"shopinfo":"0",
"poiweight":"[]",
"parking_type":null,
"avg_price":null,
"avg_price_type":null
},
{
"id":"B0FFFE0SKD",
"name":"拓心副食",
"type":"购物服务;便民商店\/便利店;便民商店\/便利店",
"typecode":"060200",
"biz_type":"[]",
"address":"双柏支路129号附近",
"location":"106.405014,29.808059",
"tel":"[]",
"distance":"[]",
"biz_ext":"[]",
"pname":"重庆市",
"cityname":"重庆市",
"adname":"北碚区",
"importance":"[]",
"shopid":"[]",
"shopinfo":"0",
"poiweight":"[]",
"parking_type":null,
"avg_price":null,
"avg_price_type":null
},
{
"id":"B0FFFE0VOG",
"name":"周六副食",
"type":"购物服务;便民商店\/便利店;便民商店\/便利店",
"typecode":"060200",
"biz_type":"[]",
"address":"东风街479附近",
"location":"106.370810,29.764597",
"tel":"023-68242455",
"distance":"[]",
"biz_ext":"[]",
"pname":"重庆市",
"cityname":"重庆市",
"adname":"北碚区",
"importance":"[]",
"shopid":"[]",
"shopinfo":"0",
"poiweight":"[]",
"parking_type":null,
"avg_price":null,
"avg_price_type":null
},
{
"id":"B0FFFE1RY3",
"name":"刘洪副食",
"type":"购物服务;便民商店\/便利店;便民商店\/便利店",
"typecode":"060200",
"biz_type":"[]",
"address":"水土镇嘉宾路6号附4号",
"location":"106.501847,29.777862",
"tel":"023-68231241;15823502858",
"distance":"[]",
"biz_ext":"[]",
"pname":"重庆市",
"cityname":"重庆市",
"adname":"北碚区",
"importance":"[]",
"shopid":"[]",
"shopinfo":"0",
"poiweight":"[]",
"parking_type":null,
"avg_price":null,
"avg_price_type":null
},
{
"id":"B0FFFE1YF5",
"name":"多点点",
"type":"购物服务;便民商店\/便利店;便民商店\/便利店",
"typecode":"060200",
"biz_type":"[]",
"address":"新村95号",
"location":"106.436798,29.827066",
"tel":"[]",
"distance":"[]",
"biz_ext":"[]",
"pname":"重庆市",
"cityname":"重庆市",
"adname":"北碚区",
"importance":"[]",
"shopid":"[]",
"shopinfo":"0",
"poiweight":"[]",
"parking_type":null,
"avg_price":null,
"avg_price_type":null
},
{
"id":"B0FFFE323I",
"name":"聚富副食",
"type":"购物服务;便民商店\/便利店;便民商店\/便利店",
"typecode":"060200",
"biz_type":"[]",
"address":"云清路64号",
"location":"106.391138,29.806097",
"tel":"13883411381",
"distance":"[]",
"biz_ext":"[]",
"pname":"重庆市",
"cityname":"重庆市",
"adname":"北碚区",
"importance":"[]",
"shopid":"[]",
"shopinfo":"0",
"poiweight":"[]",
"parking_type":null,
"avg_price":null,
"avg_price_type":null
},
{
"id":"B0FFFE48P0",
"name":"云佩副食",
"type":"购物服务;便民商店\/便利店;便民商店\/便利店",
"typecode":"060200",
"biz_type":"[]",
"address":"北泉路188号",
"location":"106.425361,29.832469",
"tel":"[]",
"distance":"[]",
"biz_ext":"[]",
"pname":"重庆市",
"cityname":"重庆市",
"adname":"北碚区",
"importance":"[]",
"shopid":"[]",
"shopinfo":"0",
"poiweight":"[]",
"parking_type":null,
"avg_price":null,
"avg_price_type":null
},
{
"id":"B0FFFE5SC8",
"name":"畔山便利店",
"type":"购物服务;便民商店\/便利店;便民商店\/便利店",
"typecode":"060200",
"biz_type":"[]",
"address":"城南新区卢作孚路170号嘉茵苑正大门",
"location":"106.393120,29.802158",
"tel":"[]",
"distance":"[]",
"biz_ext":"[]",
"pname":"重庆市",
"cityname":"重庆市",
"adname":"北碚区",
"importance":"[]",
"shopid":"[]",
"shopinfo":"0",
"poiweight":"[]",
"parking_type":null,
"avg_price":null,
"avg_price_type":null
},
{
"id":"B0FFFE5YQ6",
"name":"辉广副食",
"type":"购物服务;便民商店\/便利店;便民商店\/便利店",
"typecode":"060200",
"biz_type":"[]",
"address":"河嘉路育新幼儿园东面",
"location":"106.445030,29.819923",
"tel":"[]",
"distance":"[]",
"biz_ext":"[]",
"pname":"重庆市",
"cityname":"重庆市",
"adname":"北碚区",
"importance":"[]",
"shopid":"[]",
"shopinfo":"0",
"poiweight":"[]",
"parking_type":null,
"avg_price":null,
"avg_price_type":null
},
{
"id":"B0FFFE6GSP",
"name":"德才百货",
"type":"购物服务;便民商店\/便利店;便民商店\/便利店",
"typecode":"060200",
"biz_type":"[]",
"address":"卢作孚路142号",
"location":"106.392331,29.802580",
"tel":"[]",
"distance":"[]",
"biz_ext":"[]",
"pname":"重庆市",
"cityname":"重庆市",
"adname":"北碚区",
"importance":"[]",
"shopid":"[]",
"shopinfo":"0",
"poiweight":"[]",
"parking_type":null,
"avg_price":null,
"avg_price_type":null
},
{
"id":"B0FFFE75CM",
"name":"陈群日杂百货",
"type":"购物服务;便民商店\/便利店;便民商店\/便利店",
"typecode":"060200",
"biz_type":"[]",
"address":"将军路434号",
"location":"106.411849,29.804029",
"tel":"[]",
"distance":"[]",
"biz_ext":"[]",
"pname":"重庆市",
"cityname":"重庆市",
"adname":"北碚区",
"importance":"[]",
"shopid":"[]",
"shopinfo":"0",
"poiweight":"[]",
"parking_type":null,
"avg_price":null,
"avg_price_type":null
},
{
"id":"B0FFFE7BHI",
"name":"雨台副食",
"type":"购物服务;便民商店\/便利店;便民商店\/便利店",
"typecode":"060200",
"biz_type":"[]",
"address":"城南双柏支路14号",
"location":"106.404129,29.807224",
"tel":"[]",
"distance":"[]",
"biz_ext":"[]",
"pname":"重庆市",
"cityname":"重庆市",
"adname":"北碚区",
"importance":"[]",
"shopid":"[]",
"shopinfo":"0",
"poiweight":"[]",
"parking_type":null,
"avg_price":null,
"avg_price_type":null
},
{
"id":"B0FFFE7VDS",
"name":"缙南副食",
"type":"购物服务;便民商店\/便利店;便民商店\/便利店",
"typecode":"060200",
"biz_type":"[]",
"address":"双元大道西100米",
"location":"106.370916,29.766654",
"tel":"13668021383",
"distance":"[]",
"biz_ext":"[]",
"pname":"重庆市",
"cityname":"重庆市",
"adname":"北碚区",
"importance":"[]",
"shopid":"[]",
"shopinfo":"0",
"poiweight":"[]",
"parking_type":null,
"avg_price":null,
"avg_price_type":null
},
{
"id":"B0FFFE876D",
"name":"优客龙进口食品",
"type":"购物服务;便民商店\/便利店;便民商店\/便利店",
"typecode":"060200",
"biz_type":"[]",
"address":"城南云清路179号",
"location":"106.399833,29.801630",
"tel":"[]",
"distance":"[]",
"biz_ext":"[]",
"pname":"重庆市",
"cityname":"重庆市",
"adname":"北碚区",
"importance":"[]",
"shopid":"[]",
"shopinfo":"0",
"poiweight":"[]",
"parking_type":null,
"avg_price":null,
"avg_price_type":null
},
{
"id":"B0FFFE8QE3",
"name":"奇易社区便利店(竹芸社区店)",
"type":"购物服务;便民商店\/便利店;便民商店\/便利店",
"typecode":"060200",
"biz_type":"[]",
"address":"金华路383号",
"location":"106.408487,29.817697",
"tel":"[]",
"distance":"[]",
"biz_ext":"[]",
"pname":"重庆市",
"cityname":"重庆市",
"adname":"北碚区",
"importance":"[]",
"shopid":"[]",
"shopinfo":"0",
"poiweight":"[]",
"parking_type":null,
"avg_price":null,
"avg_price_type":null
},
{
"id":"B0FFFE95JH",
"name":"天友副食(双柏支路)",
"type":"购物服务;便民商店\/便利店;便民商店\/便利店",
"typecode":"060200",
"biz_type":"[]",
"address":"双柏支路155号附近",
"location":"106.404800,29.807945",
"tel":"[]",
"distance":"[]",
"biz_ext":"[]",
"pname":"重庆市",
"cityname":"重庆市",
"adname":"北碚区",
"importance":"[]",
"shopid":"[]",
"shopinfo":"0",
"poiweight":"[]",
"parking_type":null,
"avg_price":null,
"avg_price_type":null
},
{
"id":"B0FFFE98YQ",
"name":"便利渔具店",
"type":"购物服务;专卖店;专营店",
"typecode":"061200",
"biz_type":"[]",
"address":"解放支路40附近",
"location":"106.502020,29.777786",
"tel":"13896067389",
"distance":"[]",
"biz_ext":"[]",
"pname":"重庆市",
"cityname":"重庆市",
"adname":"北碚区",
"importance":"[]",
"shopid":"[]",
"shopinfo":"0",
"poiweight":"[]",
"parking_type":null,
"avg_price":null,
"avg_price_type":null
},
{
"id":"B0FFFE9DK5",
"name":"彤语副食便利店",
"type":"购物服务;便民商店\/便利店;便民商店\/便利店",
"typecode":"060200",
"biz_type":"[]",
"address":"金华路328号20幢1-10",
"location":"106.415550,29.825101",
"tel":"023-68864766;13368069215",
"distance":"[]",
"biz_ext":"[]",
"pname":"重庆市",
"cityname":"重庆市",
"adname":"北碚区",
"importance":"[]",
"shopid":"[]",
"shopinfo":"0",
"poiweight":"[]",
"parking_type":null,
"avg_price":null,
"avg_price_type":null
},
{
"id":"B0FFFE9JE1",
"name":"友谊小卖部",
"type":"购物服务;便民商店\/便利店;便民商店\/便利店",
"typecode":"060200",
"biz_type":"[]",
"address":"南京路79号",
"location":"106.442180,29.831154",
"tel":"13883834125",
"distance":"[]",
"biz_ext":"[]",
"pname":"重庆市",
"cityname":"重庆市",
"adname":"北碚区",
"importance":"[]",
"shopid":"[]",
"shopinfo":"0",
"poiweight":"[]",
"parking_type":null,
"avg_price":null,
"avg_price_type":null
},
{
"id":"B0FFFE9VK3",
"name":"海棠副食(云开路)",
"type":"购物服务;便民商店\/便利店;便民商店\/便利店",
"typecode":"060200",
"biz_type":"[]",
"address":"缙泉路15号",
"location":"106.416423,29.833005",
"tel":"[]",
"distance":"[]",
"biz_ext":"[]",
"pname":"重庆市",
"cityname":"重庆市",
"adname":"北碚区",
"importance":"[]",
"shopid":"[]",
"shopinfo":"0",
"poiweight":"[]",
"parking_type":null,
"avg_price":null,
"avg_price_type":null
},
{
"id":"B0FFFEA2GP",
"name":"金鑫副食(碚南大道)",
"type":"购物服务;专卖店;烟酒专卖店|购物服务;便民商店\/便利店;便民商店\/便利店",
"typecode":"061210|060200",
"biz_type":"[]",
"address":"碚南大道86号",
"location":"106.403993,29.806158",
"tel":"023-86021241",
"distance":"[]",
"biz_ext":"[]",
"pname":"重庆市",
"cityname":"重庆市",
"adname":"北碚区",
"importance":"[]",
"shopid":"[]",
"shopinfo":"0",
"poiweight":"[]",
"parking_type":null,
"avg_price":null,
"avg_price_type":null
},
{
"id":"B0FFFEAMBC",
"name":"易购便利店(北碚江山美邻店)",
"type":"购物服务;便民商店\/便利店;便民商店\/便利店",
"typecode":"060200",
"biz_type":"[]",
"address":"鱼塘湾318号附12号",
"location":"106.439552,29.817939",
"tel":"023-68261699",
"distance":"[]",
"biz_ext":"[]",
"pname":"重庆市",
"cityname":"重庆市",
"adname":"北碚区",
"importance":"[]",
"shopid":"[]",
"shopinfo":"0",
"poiweight":"[]",
"parking_type":null,
"avg_price":null,
"avg_price_type":null
},
{
"id":"B0FFFEAMXK",
"name":"晋元商行",
"type":"购物服务;便民商店\/便利店;便民商店\/便利店",
"typecode":"060200",
"biz_type":"[]",
"address":"歇马下街99号附25号",
"location":"106.370480,29.765417",
"tel":"15320330007",
"distance":"[]",
"biz_ext":"[]",
"pname":"重庆市",
"cityname":"重庆市",
"adname":"北碚区",
"importance":"[]",
"shopid":"[]",
"shopinfo":"0",
"poiweight":"[]",
"parking_type":null,
"avg_price":null,
"avg_price_type":null
},
{
"id":"B0FFFEB8CL",
"name":"好多惠副食",
"type":"购物服务;便民商店\/便利店;便民商店\/便利店",
"typecode":"060200",
"biz_type":"[]",
"address":"云开路丰盛餐馆旁",
"location":"106.414937,29.831452",
"tel":"18102344838",
"distance":"[]",
"biz_ext":"[]",
"pname":"重庆市",
"cityname":"重庆市",
"adname":"北碚区",
"importance":"[]",
"shopid":"[]",
"shopinfo":"0",
"poiweight":"[]",
"parking_type":null,
"avg_price":null,
"avg_price_type":null
},
{
"id":"B0FFFEPKKB",
"name":"联合一百(药王店)",
"type":"购物服务;便民商店\/便利店;便民商店\/便利店",
"typecode":"060200",
"biz_type":"[]",
"address":"玉皇街与293县道交叉口东北100米",
"location":"106.529020,29.840110",
"tel":"023-86041329",
"distance":"[]",
"biz_ext":"[]",
"pname":"重庆市",
"cityname":"重庆市",
"adname":"北碚区",
"importance":"[]",
"shopid":"[]",
"shopinfo":"0",
"poiweight":"[]",
"parking_type":null,
"avg_price":null,
"avg_price_type":null
},
{
"id":"B0FFFODPB0",
"name":"陈斌副食",
"type":"购物服务;便民商店\/便利店;便民商店\/便利店",
"typecode":"060200",
"biz_type":"[]",
"address":"童家溪镇同兴南路71号银钢集团斜对面",
"location":"106.447569,29.668813",
"tel":"[]",
"distance":"[]",
"biz_ext":"[]",
"pname":"重庆市",
"cityname":"重庆市",
"adname":"北碚区",
"importance":"[]",
"shopid":"[]",
"shopinfo":"0",
"poiweight":"[]",
"parking_type":null,
"avg_price":null,
"avg_price_type":null
},
{
"id":"B0FFFPFP18",
"name":"小凤副食店",
"type":"购物服务;便民商店\/便利店;便民商店\/便利店",
"typecode":"060200",
"biz_type":"[]",
"address":"香洲心城33号",
"location":"106.436611,29.812430",
"tel":"023-68220050",
"distance":"[]",
"biz_ext":"[]",
"pname":"重庆市",
"cityname":"重庆市",
"adname":"北碚区",
"importance":"[]",
"shopid":"[]",
"shopinfo":"0",
"poiweight":"[]",
"parking_type":null,
"avg_price":null,
"avg_price_type":null
},
{
"id":"B0FFFSTB0N",
"name":"月华副食(富兴花园东北)",
"type":"购物服务;便民商店\/便利店;便民商店\/便利店",
"typecode":"060200",
"biz_type":"[]",
"address":"龙溪路金钟琴行旁",
"location":"106.429901,29.819375",
"tel":"[]",
"distance":"[]",
"biz_ext":"[]",
"pname":"重庆市",
"cityname":"重庆市",
"adname":"北碚区",
"importance":"[]",
"shopid":"[]",
"shopinfo":"0",
"poiweight":"[]",
"parking_type":null,
"avg_price":null,
"avg_price_type":null
},
{
"id":"B0FFFSUCQR",
"name":"小成食店",
"type":"购物服务;便民商店\/便利店;便民商店\/便利店",
"typecode":"060200",
"biz_type":"[]",
"address":"卢作孚路401号",
"location":"106.399673,29.798734",
"tel":"023-68214678",
"distance":"[]",
"biz_ext":"[]",
"pname":"重庆市",
"cityname":"重庆市",
"adname":"北碚区",
"importance":"[]",
"shopid":"[]",
"shopinfo":"0",
"poiweight":"[]",
"parking_type":null,
"avg_price":null,
"avg_price_type":null
},
{
"id":"B0FFFSVAIC",
"name":"田园副食(重庆市北碚区林业局西南)",
"type":"购物服务;便民商店\/便利店;便民商店\/便利店",
"typecode":"060200",
"biz_type":"[]",
"address":"天生路91-26附近",
"location":"106.425346,29.817522",
"tel":"023-86038338",
"distance":"[]",
"biz_ext":"[]",
"pname":"重庆市",
"cityname":"重庆市",
"adname":"北碚区",
"importance":"[]",
"shopid":"[]",
"shopinfo":"0",
"poiweight":"[]",
"parking_type":null,
"avg_price":null,
"avg_price_type":null
},
{
"id":"B0FFFSYYBE",
"name":"凯宏副食",
"type":"购物服务;便民商店\/便利店;便民商店\/便利店",
"typecode":"060200",
"biz_type":"[]",
"address":"城南嘉陵风情步行街71号附3号",
"location":"106.403327,29.800470",
"tel":"[]",
"distance":"[]",
"biz_ext":"[]",
"pname":"重庆市",
"cityname":"重庆市",
"adname":"北碚区",
"importance":"[]",
"shopid":"[]",
"shopinfo":"0",
"poiweight":"[]",
"parking_type":null,
"avg_price":null,
"avg_price_type":null
},
{
"id":"B0FFFSZ3B8",
"name":"樟林副食店",
"type":"购物服务;便民商店\/便利店;便民商店\/便利店",
"typecode":"060200",
"biz_type":"[]",
"address":"将军路新天花园196号",
"location":"106.412078,29.806297",
"tel":"[]",
"distance":"[]",
"biz_ext":"[]",
"pname":"重庆市",
"cityname":"重庆市",
"adname":"北碚区",
"importance":"[]",
"shopid":"[]",
"shopinfo":"0",
"poiweight":"[]",
"parking_type":null,
"avg_price":null,
"avg_price_type":null
},
{
"id":"B0FFFT291F",
"name":"光群副食",
"type":"购物服务;便民商店\/便利店;便民商店\/便利店",
"typecode":"060200",
"biz_type":"[]",
"address":"胜利路光荣村科技校半坡",
"location":"106.437767,29.822856",
"tel":"[]",
"distance":"[]",
"biz_ext":"[]",
"pname":"重庆市",
"cityname":"重庆市",
"adname":"北碚区",
"importance":"[]",
"shopid":"[]",
"shopinfo":"0",
"poiweight":"[]",
"parking_type":null,
"avg_price":null,
"avg_price_type":null
},
{
"id":"B0FFFU5TYJ",
"name":"忻然日用品",
"type":"购物服务;便民商店\/便利店;便民商店\/便利店",
"typecode":"060200",
"biz_type":"[]",
"address":"金华路328附41附近",
"location":"106.416427,29.827608",
"tel":"13370703032",
"distance":"[]",
"biz_ext":"[]",
"pname":"重庆市",
"cityname":"重庆市",
"adname":"北碚区",
"importance":"[]",
"shopid":"[]",
"shopinfo":"0",
"poiweight":"[]",
"parking_type":null,
"avg_price":null,
"avg_price_type":null
},
{
"id":"B0FFFUAHDE",
"name":"开得商行",
"type":"购物服务;便民商店\/便利店;便民商店\/便利店",
"typecode":"060200",
"biz_type":"[]",
"address":"金华路313号附33号",
"location":"106.419624,29.827686",
"tel":"[]",
"distance":"[]",
"biz_ext":"[]",
"pname":"重庆市",
"cityname":"重庆市",
"adname":"北碚区",
"importance":"[]",
"shopid":"[]",
"shopinfo":"0",
"poiweight":"[]",
"parking_type":null,
"avg_price":null,
"avg_price_type":null
},
{
"id":"B0FFFUG48L",
"name":"开心副食",
"type":"购物服务;便民商店\/便利店;便民商店\/便利店",
"typecode":"060200",
"biz_type":"[]",
"address":"云清路57号",
"location":"106.391484,29.806447",
"tel":"023-88026079",
"distance":"[]",
"biz_ext":"[]",
"pname":"重庆市",
"cityname":"重庆市",
"adname":"北碚区",
"importance":"[]",
"shopid":"[]",
"shopinfo":"0",
"poiweight":"[]",
"parking_type":null,
"avg_price":null,
"avg_price_type":null
},
{
"id":"B0FFFV4NBG",
"name":"健身梯便利店",
"type":"购物服务;便民商店\/便利店;便民商店\/便利店",
"typecode":"060200",
"biz_type":"[]",
"address":"云清路与缙云大道交叉口旁",
"location":"106.390354,29.807080",
"tel":"[]",
"distance":"[]",
"biz_ext":"[]",
"pname":"重庆市",
"cityname":"重庆市",
"adname":"北碚区",
"importance":"[]",
"shopid":"[]",
"shopinfo":"0",
"poiweight":"[]",
"parking_type":null,
"avg_price":null,
"avg_price_type":null
},
{
"id":"B0FFFVF1TJ",
"name":"朝天门批发商",
"type":"购物服务;便民商店\/便利店;便民商店\/便利店",
"typecode":"060200",
"biz_type":"[]",
"address":"云泉路1号附4号",
"location":"106.438223,29.820233",
"tel":"[]",
"distance":"[]",
"biz_ext":"[]",
"pname":"重庆市",
"cityname":"重庆市",
"adname":"北碚区",
"importance":"[]",
"shopid":"[]",
"shopinfo":"0",
"poiweight":"[]",
"parking_type":null,
"avg_price":null,
"avg_price_type":null
},
{
"id":"B0FFFVW87E",
"name":"琴润副食店",
"type":"购物服务;便民商店\/便利店;便民商店\/便利店",
"typecode":"060200",
"biz_type":"[]",
"address":"北泉路117号",
"location":"106.426925,29.831752",
"tel":"[]",
"distance":"[]",
"biz_ext":"[]",
"pname":"重庆市",
"cityname":"重庆市",
"adname":"北碚区",
"importance":"[]",
"shopid":"[]",
"shopinfo":"0",
"poiweight":"[]",
"parking_type":null,
"avg_price":null,
"avg_price_type":null
},
{
"id":"B0FFFW24PO",
"name":"芬雨副食",
"type":"购物服务;便民商店\/便利店;便民商店\/便利店",
"typecode":"060200",
"biz_type":"[]",
"address":"团山一路18附6",
"location":"106.424697,29.831565",
"tel":"[]",
"distance":"[]",
"biz_ext":"[]",
"pname":"重庆市",
"cityname":"重庆市",
"adname":"北碚区",
"importance":"[]",
"shopid":"[]",
"shopinfo":"0",
"poiweight":"[]",
"parking_type":null,
"avg_price":null,
"avg_price_type":null
},
{
"id":"B0FFFW3BL8",
"name":"通惠商城",
"type":"购物服务;便民商店\/便利店;便民商店\/便利店",
"typecode":"060200",
"biz_type":"[]",
"address":"金华路15号",
"location":"106.427215,29.831697",
"tel":"[]",
"distance":"[]",
"biz_ext":"[]",
"pname":"重庆市",
"cityname":"重庆市",
"adname":"北碚区",
"importance":"[]",
"shopid":"[]",
"shopinfo":"0",
"poiweight":"[]",
"parking_type":null,
"avg_price":null,
"avg_price_type":null
},
{
"id":"B0FFFW3EZH",
"name":"佳佳副食店",
"type":"购物服务;便民商店\/便利店;便民商店\/便利店",
"typecode":"060200",
"biz_type":"[]",
"address":"北温泉街道文星湾新房子259号",
"location":"106.429496,29.832889",
"tel":"[]",
"distance":"[]",
"biz_ext":"[]",
"pname":"重庆市",
"cityname":"重庆市",
"adname":"北碚区",
"importance":"[]",
"shopid":"[]",
"shopinfo":"0",
"poiweight":"[]",
"parking_type":null,
"avg_price":null,
"avg_price_type":null
},
{
"id":"B0FFFW3G9V",
"name":"言言副食",
"type":"购物服务;便民商店\/便利店;便民商店\/便利店",
"typecode":"060200",
"biz_type":"[]",
"address":"金华支路7号",
"location":"106.425956,29.829559",
"tel":"[]",
"distance":"[]",
"biz_ext":"[]",
"pname":"重庆市",
"cityname":"重庆市",
"adname":"北碚区",
"importance":"[]",
"shopid":"[]",
"shopinfo":"0",
"poiweight":"[]",
"parking_type":null,
"avg_price":null,
"avg_price_type":null
},
{
"id":"B0FFFW8Y1Y",
"name":"金满副食",
"type":"购物服务;便民商店\/便利店;便民商店\/便利店",
"typecode":"060200",
"biz_type":"[]",
"address":"北泉支路与北泉路交叉口北50米",
"location":"106.426071,29.832313",
"tel":"[]",
"distance":"[]",
"biz_ext":"[]",
"pname":"重庆市",
"cityname":"重庆市",
"adname":"北碚区",
"importance":"[]",
"shopid":"[]",
"shopinfo":"0",
"poiweight":"[]",
"parking_type":null,
"avg_price":null,
"avg_price_type":null
},
{
"id":"B0FFFWAXX1",
"name":"重庆洋腾百货",
"type":"购物服务;超级市场;超市",
"typecode":"060400",
"biz_type":"[]",
"address":"龙溪路88号",
"location":"106.438980,29.816991",
"tel":"[]",
"distance":"[]",
"biz_ext":"[]",
"pname":"重庆市",
"cityname":"重庆市",
"adname":"北碚区",
"importance":"[]",
"shopid":"[]",
"shopinfo":"0",
"poiweight":"[]",
"parking_type":null,
"avg_price":null,
"avg_price_type":null
},
{
"id":"B0FFFWCH3D",
"name":"文霞精品百货",
"type":"购物服务;商场;普通商场",
"typecode":"060102",
"biz_type":"[]",
"address":"蔡家横街33号附8号",
"location":"106.473774,29.732194",
"tel":"18323808268",
"distance":"[]",
"biz_ext":"[]",
"pname":"重庆市",
"cityname":"重庆市",
"adname":"北碚区",
"importance":"[]",
"shopid":"[]",
"shopinfo":"0",
"poiweight":"[]",
"parking_type":null,
"avg_price":null,
"avg_price_type":null
},
{
"id":"B0FFFWHAXU",
"name":"尚祥副食",
"type":"购物服务;便民商店\/便利店;便民商店\/便利店",
"typecode":"060200",
"biz_type":"[]",
"address":"碚峡路99-1号",
"location":"106.442613,29.825146",
"tel":"[]",
"distance":"[]",
"biz_ext":"[]",
"pname":"重庆市",
"cityname":"重庆市",
"adname":"北碚区",
"importance":"[]",
"shopid":"[]",
"shopinfo":"0",
"poiweight":"[]",
"parking_type":null,
"avg_price":null,
"avg_price_type":null
},
{
"id":"B0FFFWNYV9",
"name":"春连旅馆副食",
"type":"购物服务;便民商店\/便利店;便民商店\/便利店",
"typecode":"060200",
"biz_type":"[]",
"address":"北泉路263号附近",
"location":"106.422757,29.832345",
"tel":"[]",
"distance":"[]",
"biz_ext":"[]",
"pname":"重庆市",
"cityname":"重庆市",
"adname":"北碚区",
"importance":"[]",
"shopid":"[]",
"shopinfo":"0",
"poiweight":"[]",
"parking_type":null,
"avg_price":null,
"avg_price_type":null
},
{
"id":"B0FFFWPW14",
"name":"富康副食(上海路)",
"type":"购物服务;便民商店\/便利店;便民商店\/便利店",
"typecode":"060200",
"biz_type":"[]",
"address":"上海路88号",
"location":"106.439727,29.831569",
"tel":"[]",
"distance":"[]",
"biz_ext":"[]",
"pname":"重庆市",
"cityname":"重庆市",
"adname":"北碚区",
"importance":"[]",
"shopid":"[]",
"shopinfo":"0",
"poiweight":"[]",
"parking_type":null,
"avg_price":null,
"avg_price_type":null
},
{
"id":"B0FFFWVW6P",
"name":"天友乳业服务中心(华光支路)",
"type":"购物服务;便民商店\/便利店;便民商店\/便利店",
"typecode":"060200",
"biz_type":"[]",
"address":"华光支路华光村46幢32号附近",
"location":"106.404911,29.815050",
"tel":"[]",
"distance":"[]",
"biz_ext":"[]",
"pname":"重庆市",
"cityname":"重庆市",
"adname":"北碚区",
"importance":"[]",
"shopid":"[]",
"shopinfo":"0",
"poiweight":"[]",
"parking_type":null,
"avg_price":null,
"avg_price_type":null
},
{
"id":"B0FFFWXQTG",
"name":"文云副食店",
"type":"购物服务;便民商店\/便利店;便民商店\/便利店",
"typecode":"060200",
"biz_type":"[]",
"address":"北泉路189附近",
"location":"106.424705,29.831790",
"tel":"[]",
"distance":"[]",
"biz_ext":"[]",
"pname":"重庆市",
"cityname":"重庆市",
"adname":"北碚区",
"importance":"[]",
"shopid":"[]",
"shopinfo":"0",
"poiweight":"[]",
"parking_type":null,
"avg_price":null,
"avg_price_type":null
},
{
"id":"B0FFFXKAQM",
"name":"张爽副食店",
"type":"购物服务;便民商店\/便利店;便民商店\/便利店",
"typecode":"060200",
"biz_type":"[]",
"address":"九龙正街19附近",
"location":"106.499327,29.782806",
"tel":"[]",
"distance":"[]",
"biz_ext":"[]",
"pname":"重庆市",
"cityname":"重庆市",
"adname":"北碚区",
"importance":"[]",
"shopid":"[]",
"shopinfo":"0",
"poiweight":"[]",
"parking_type":null,
"avg_price":null,
"avg_price_type":null
},
{
"id":"B0FFFXSULJ",
"name":"志艺副食店",
"type":"购物服务;便民商店\/便利店;便民商店\/便利店",
"typecode":"060200",
"biz_type":"[]",
"address":"新华路311附近",
"location":"106.500974,29.782733",
"tel":"[]",
"distance":"[]",
"biz_ext":"[]",
"pname":"重庆市",
"cityname":"重庆市",
"adname":"北碚区",
"importance":"[]",
"shopid":"[]",
"shopinfo":"0",
"poiweight":"[]",
"parking_type":null,
"avg_price":null,
"avg_price_type":null
},
{
"id":"B0FFFXY9UR",
"name":"兴辰百货",
"type":"购物服务;便民商店\/便利店;便民商店\/便利店",
"typecode":"060200",
"biz_type":"[]",
"address":"水土镇碚金路和欣佳幼儿园附近",
"location":"106.509574,29.794926",
"tel":"[]",
"distance":"[]",
"biz_ext":"[]",
"pname":"重庆市",
"cityname":"重庆市",
"adname":"北碚区",
"importance":"[]",
"shopid":"[]",
"shopinfo":"0",
"poiweight":"[]",
"parking_type":null,
"avg_price":null,
"avg_price_type":null
},
{
"id":"B0FFFY55C2",
"name":"杨尚副食",
"type":"购物服务;便民商店\/便利店;便民商店\/便利店",
"typecode":"060200",
"biz_type":"[]",
"address":"澄江路与道兴路交叉口东南50米",
"location":"106.388749,29.871373",
"tel":"[]",
"distance":"[]",
"biz_ext":"[]",
"pname":"重庆市",
"cityname":"重庆市",
"adname":"北碚区",
"importance":"[]",
"shopid":"[]",
"shopinfo":"0",
"poiweight":"[]",
"parking_type":null,
"avg_price":null,
"avg_price_type":null
},
{
"id":"B0FFFY5PJM",
"name":"永群精品小百货",
"type":"购物服务;购物相关场所;购物相关场所",
"typecode":"060000",
"biz_type":"[]",
"address":"水土镇九龙正街72号",
"location":"106.501820,29.783079",
"tel":"13108904783",
"distance":"[]",
"biz_ext":"[]",
"pname":"重庆市",
"cityname":"重庆市",
"adname":"北碚区",
"importance":"[]",
"shopid":"[]",
"shopinfo":"0",
"poiweight":"[]",
"parking_type":null,
"avg_price":null,
"avg_price_type":null
},
{
"id":"B0FFFY80XT",
"name":"易大副食批发",
"type":"购物服务;便民商店\/便利店;便民商店\/便利店",
"typecode":"060200",
"biz_type":"[]",
"address":"渝南路北碚段与澄江路交叉口东北50米",
"location":"106.385763,29.871252",
"tel":"023-68227626",
"distance":"[]",
"biz_ext":"[]",
"pname":"重庆市",
"cityname":"重庆市",
"adname":"北碚区",
"importance":"[]",
"shopid":"[]",
"shopinfo":"0",
"poiweight":"[]",
"parking_type":null,
"avg_price":null,
"avg_price_type":null
},
{
"id":"B0FFFYG3Y0",
"name":"刚子副食店",
"type":"购物服务;超级市场;超市",
"typecode":"060400",
"biz_type":"[]",
"address":"澄江路283-2附近",
"location":"106.385200,29.871274",
"tel":"[]",
"distance":"[]",
"biz_ext":"[]",
"pname":"重庆市",
"cityname":"重庆市",
"adname":"北碚区",
"importance":"[]",
"shopid":"[]",
"shopinfo":"0",
"poiweight":"[]",
"parking_type":null,
"avg_price":null,
"avg_price_type":null
},
{
"id":"B0FFFZ3XES",
"name":"回头笑副食店",
"type":"购物服务;便民商店\/便利店;便民商店\/便利店",
"typecode":"060200",
"biz_type":"[]",
"address":"渝南路与蔡支路交叉口西50米",
"location":"106.456570,29.746124",
"tel":"[]",
"distance":"[]",
"biz_ext":"[]",
"pname":"重庆市",
"cityname":"重庆市",
"adname":"北碚区",
"importance":"[]",
"shopid":"[]",
"shopinfo":"0",
"poiweight":"[]",
"parking_type":null,
"avg_price":null,
"avg_price_type":null
},
{
"id":"B0FFFZWPT4",
"name":"天友服务中心",
"type":"购物服务;便民商店\/便利店;便民商店\/便利店",
"typecode":"060200",
"biz_type":"[]",
"address":"龙溪街道余松二支2号附1",
"location":"106.444044,29.664803",
"tel":"[]",
"distance":"[]",
"biz_ext":"[]",
"pname":"重庆市",
"cityname":"重庆市",
"adname":"北碚区",
"importance":"[]",
"shopid":"[]",
"shopinfo":"0",
"poiweight":"[]",
"parking_type":null,
"avg_price":null,
"avg_price_type":null
},
{
"id":"B0FFFZWPZO",
"name":"忻然小铺",
"type":"购物服务;便民商店\/便利店;便民商店\/便利店",
"typecode":"060200",
"biz_type":"[]",
"address":"同兴正街26号附近",
"location":"106.450046,29.681435",
"tel":"[]",
"distance":"[]",
"biz_ext":"[]",
"pname":"重庆市",
"cityname":"重庆市",
"adname":"北碚区",
"importance":"[]",
"shopid":"[]",
"shopinfo":"0",
"poiweight":"[]",
"parking_type":null,
"avg_price":null,
"avg_price_type":null
},
{
"id":"B0FFG168KK",
"name":"回龙花园平价副食",
"type":"购物服务;便民商店\/便利店;便民商店\/便利店",
"typecode":"060200",
"biz_type":"[]",
"address":"歇马镇冯时行路288号",
"location":"106.394615,29.797372",
"tel":"[]",
"distance":"[]",
"biz_ext":"[]",
"pname":"重庆市",
"cityname":"重庆市",
"adname":"北碚区",
"importance":"[]",
"shopid":"[]",
"shopinfo":"0",
"poiweight":"[]",
"parking_type":null,
"avg_price":null,
"avg_price_type":null
},
{
"id":"B0FFG17YU8",
"name":"蒋庭琼副食店",
"type":"购物服务;便民商店\/便利店;便民商店\/便利店",
"typecode":"060200",
"biz_type":"[]",
"address":"灯塔街西50米",
"location":"106.497667,29.731728",
"tel":"[]",
"distance":"[]",
"biz_ext":"[]",
"pname":"重庆市",
"cityname":"重庆市",
"adname":"北碚区",
"importance":"[]",
"shopid":"[]",
"shopinfo":"0",
"poiweight":"[]",
"parking_type":null,
"avg_price":null,
"avg_price_type":null
},
{
"id":"B0FFG17ZNM",
"name":"重庆秀娜副食经营部",
"type":"购物服务;便民商店\/便利店;便民商店\/便利店",
"typecode":"060200",
"biz_type":"[]",
"address":"灯塔街10号附近",
"location":"106.496540,29.729311",
"tel":"13368324377",
"distance":"[]",
"biz_ext":"[]",
"pname":"重庆市",
"cityname":"重庆市",
"adname":"北碚区",
"importance":"[]",
"shopid":"[]",
"shopinfo":"0",
"poiweight":"[]",
"parking_type":null,
"avg_price":null,
"avg_price_type":null
},
{
"id":"B0FFG1KVJL",
"name":"小丽副食",
"type":"购物服务;便民商店\/便利店;便民商店\/便利店",
"typecode":"060200",
"biz_type":"[]",
"address":"西南大学",
"location":"106.431579,29.830644",
"tel":"[]",
"distance":"[]",
"biz_ext":"[]",
"pname":"重庆市",
"cityname":"重庆市",
"adname":"北碚区",
"importance":"[]",
"shopid":"[]",
"shopinfo":"0",
"poiweight":"[]",
"parking_type":null,
"avg_price":null,
"avg_price_type":null
},
{
"id":"B0FFG1S662",
"name":"邮电天友",
"type":"购物服务;便民商店\/便利店;便民商店\/便利店",
"typecode":"060200",
"biz_type":"[]",
"address":"中山路70号(如家酒店旁)",
"location":"106.437637,29.826009",
"tel":"[]",
"distance":"[]",
"biz_ext":"[]",
"pname":"重庆市",
"cityname":"重庆市",
"adname":"北碚区",
"importance":"[]",
"shopid":"[]",
"shopinfo":"0",
"poiweight":"[]",
"parking_type":null,
"avg_price":null,
"avg_price_type":null
},
{
"id":"B0FFG1TNBH",
"name":"建辉副食(北京路)",
"type":"购物服务;便民商店\/便利店;便民商店\/便利店",
"typecode":"060200",
"biz_type":"[]",
"address":"北京路与滨江路交叉口南50米",
"location":"106.441238,29.831996",
"tel":"[]",
"distance":"[]",
"biz_ext":"[]",
"pname":"重庆市",
"cityname":"重庆市",
"adname":"北碚区",
"importance":"[]",
"shopid":"[]",
"shopinfo":"0",
"poiweight":"[]",
"parking_type":null,
"avg_price":null,
"avg_price_type":null
},
{
"id":"B0FFG255TL",
"name":"婷利副食",
"type":"购物服务;便民商店\/便利店;便民商店\/便利店",
"typecode":"060200",
"biz_type":"[]",
"address":"康宁路254号(德邦物流旁)",
"location":"106.402082,29.796011",
"tel":"13996489982",
"distance":"[]",
"biz_ext":"[]",
"pname":"重庆市",
"cityname":"重庆市",
"adname":"北碚区",
"importance":"[]",
"shopid":"[]",
"shopinfo":"0",
"poiweight":"[]",
"parking_type":null,
"avg_price":null,
"avg_price_type":null
},
{
"id":"B0FFG25NWO",
"name":"邮政报刊杂志",
"type":"购物服务;便民商店\/便利店;便民商店\/便利店",
"typecode":"060200",
"biz_type":"[]",
"address":"中山路与步行街交叉口北50米",
"location":"106.437796,29.825879",
"tel":"[]",
"distance":"[]",
"biz_ext":"[]",
"pname":"重庆市",
"cityname":"重庆市",
"adname":"北碚区",
"importance":"[]",
"shopid":"[]",
"shopinfo":"0",
"poiweight":"[]",
"parking_type":null,
"avg_price":null,
"avg_price_type":null
},
{
"id":"B0FFG276XZ",
"name":"学明副食",
"type":"购物服务;便民商店\/便利店;便民商店\/便利店",
"typecode":"060200",
"biz_type":"[]",
"address":"龙凤路西100米",
"location":"106.434570,29.812694",
"tel":"[]",
"distance":"[]",
"biz_ext":"[]",
"pname":"重庆市",
"cityname":"重庆市",
"adname":"北碚区",
"importance":"[]",
"shopid":"[]",
"shopinfo":"0",
"poiweight":"[]",
"parking_type":null,
"avg_price":null,
"avg_price_type":null
},
{
"id":"B0FFG2JUXV",
"name":"道和生态体验馆",
"type":"购物服务;便民商店\/便利店;便民商店\/便利店",
"typecode":"060200",
"biz_type":"[]",
"address":"双元大道附近",
"location":"106.399042,29.806656",
"tel":"023-68295623;18323834983",
"distance":"[]",
"biz_ext":"[]",
"pname":"重庆市",
"cityname":"重庆市",
"adname":"北碚区",
"importance":"[]",
"shopid":"[]",
"shopinfo":"0",
"poiweight":"[]",
"parking_type":null,
"avg_price":null,
"avg_price_type":null
},
{
"id":"B0FFG2L2SB",
"name":"强强副食店(辽宁路)",
"type":"购物服务;便民商店\/便利店;便民商店\/便利店",
"typecode":"060200",
"biz_type":"[]",
"address":"石岩村90-1号",
"location":"106.434722,29.826147",
"tel":"023-86029894",
"distance":"[]",
"biz_ext":"[]",
"pname":"重庆市",
"cityname":"重庆市",
"adname":"北碚区",
"importance":"[]",
"shopid":"[]",
"shopinfo":"0",
"poiweight":"[]",
"parking_type":null,
"avg_price":null,
"avg_price_type":null
},
{
"id":"B0FFG2Q890",
"name":"兴荣副食店",
"type":"购物服务;便民商店\/便利店;便民商店\/便利店",
"typecode":"060200",
"biz_type":"[]",
"address":"同兴南路66附近",
"location":"106.448073,29.672346",
"tel":"[]",
"distance":"[]",
"biz_ext":"[]",
"pname":"重庆市",
"cityname":"重庆市",
"adname":"北碚区",
"importance":"[]",
"shopid":"[]",
"shopinfo":"0",
"poiweight":"[]",
"parking_type":null,
"avg_price":null,
"avg_price_type":null
},
{
"id":"B0FFG2Q8FS",
"name":"芙蓉兴盛",
"type":"购物服务;便民商店\/便利店;便民商店\/便利店",
"typecode":"060200",
"biz_type":"[]",
"address":"同兴南路与同兴园区一路交叉口西南50米",
"location":"106.444473,29.664040",
"tel":"023-63224945",
"distance":"[]",
"biz_ext":"[]",
"pname":"重庆市",
"cityname":"重庆市",
"adname":"北碚区",
"importance":"[]",
"shopid":"[]",
"shopinfo":"[]",
"poiweight":"[]",
"parking_type":null,
"avg_price":null,
"avg_price_type":null
},
{
"id":"B0FFG33A7H",
"name":"竹林湾副食店",
"type":"购物服务;便民商店\/便利店;便民商店\/便利店",
"typecode":"060200",
"biz_type":"[]",
"address":"凤林路165号",
"location":"106.460368,29.739610",
"tel":"13883696225",
"distance":"[]",
"biz_ext":"[]",
"pname":"重庆市",
"cityname":"重庆市",
"adname":"北碚区",
"importance":"[]",
"shopid":"[]",
"shopinfo":"0",
"poiweight":"[]",
"parking_type":null,
"avg_price":null,
"avg_price_type":null
},
{
"id":"B0FFG35XE5",
"name":"兴兴副食(新星路)",
"type":"购物服务;便民商店\/便利店;便民商店\/便利店",
"typecode":"060200",
"biz_type":"[]",
"address":"新星路19号附近",
"location":"106.436103,29.821754",
"tel":"[]",
"distance":"[]",
"biz_ext":"[]",
"pname":"重庆市",
"cityname":"重庆市",
"adname":"北碚区",
"importance":"[]",
"shopid":"[]",
"shopinfo":"0",
"poiweight":"[]",
"parking_type":null,
"avg_price":null,
"avg_price_type":null
},
{
"id":"B0FFG35ZUZ",
"name":"惠民副食(奔月路)",
"type":"购物服务;便民商店\/便利店;便民商店\/便利店",
"typecode":"060200",
"biz_type":"[]",
"address":"奔月路87号附近",
"location":"106.434623,29.819694",
"tel":"[]",
"distance":"[]",
"biz_ext":"[]",
"pname":"重庆市",
"cityname":"重庆市",
"adname":"北碚区",
"importance":"[]",
"shopid":"[]",
"shopinfo":"0",
"poiweight":"[]",
"parking_type":null,
"avg_price":null,
"avg_price_type":null
},
{
"id":"B0FFG35ZYD",
"name":"望月副食",
"type":"购物服务;便民商店\/便利店;便民商店\/便利店",
"typecode":"060200",
"biz_type":"[]",
"address":"奔月路101号",
"location":"106.434539,29.819734",
"tel":"[]",
"distance":"[]",
"biz_ext":"[]",
"pname":"重庆市",
"cityname":"重庆市",
"adname":"北碚区",
"importance":"[]",
"shopid":"[]",
"shopinfo":"0",
"poiweight":"[]",
"parking_type":null,
"avg_price":null,
"avg_price_type":null
},
{
"id":"B0FFG41IBR",
"name":"惠玲经营部",
"type":"购物服务;便民商店\/便利店;便民商店\/便利店",
"typecode":"060200",
"biz_type":"[]",
"address":"后峰路天天见旁",
"location":"106.502758,29.871801",
"tel":"023-68302636",
"distance":"[]",
"biz_ext":"[]",
"pname":"重庆市",
"cityname":"重庆市",
"adname":"北碚区",
"importance":"[]",
"shopid":"[]",
"shopinfo":"0",
"poiweight":"[]",
"parking_type":null,
"avg_price":null,
"avg_price_type":null
},
{
"id":"B0FFG41IJB",
"name":"国春副食店",
"type":"购物服务;便民商店\/便利店;便民商店\/便利店",
"typecode":"060200",
"biz_type":"[]",
"address":"后峰路东50米",
"location":"106.501958,29.869750",
"tel":"[]",
"distance":"[]",
"biz_ext":"[]",
"pname":"重庆市",
"cityname":"重庆市",
"adname":"北碚区",
"importance":"[]",
"shopid":"[]",
"shopinfo":"0",
"poiweight":"[]",
"parking_type":null,
"avg_price":null,
"avg_price_type":null
},
{
"id":"B0FFG4C0OG",
"name":"利安便利",
"type":"购物服务;便民商店\/便利店;便民商店\/便利店",
"typecode":"060200",
"biz_type":"[]",
"address":"碚峡路144号-附7号",
"location":"106.439602,29.822774",
"tel":"[]",
"distance":"[]",
"biz_ext":"[]",
"pname":"重庆市",
"cityname":"重庆市",
"adname":"北碚区",
"importance":"[]",
"shopid":"[]",
"shopinfo":"0",
"poiweight":"[]",
"parking_type":null,
"avg_price":null,
"avg_price_type":null
},
{
"id":"B0FFG4MG2G",
"name":"万事如意专卖店",
"type":"购物服务;便民商店\/便利店;便民商店\/便利店",
"typecode":"060200",
"biz_type":"[]",
"address":"辽宁路119号",
"location":"106.436080,29.827842",
"tel":"13668346166",
"distance":"[]",
"biz_ext":"[]",
"pname":"重庆市",
"cityname":"重庆市",
"adname":"北碚区",
"importance":"[]",
"shopid":"[]",
"shopinfo":"0",
"poiweight":"[]",
"parking_type":null,
"avg_price":null,
"avg_price_type":null
},
{
"id":"B0FFG4MYBF",
"name":"龙门阵副食",
"type":"购物服务;便民商店\/便利店;便民商店\/便利店",
"typecode":"060200",
"biz_type":"[]",
"address":"云泉路55附近",
"location":"106.435829,29.823726",
"tel":"023-68865327",
"distance":"[]",
"biz_ext":"[]",
"pname":"重庆市",
"cityname":"重庆市",
"adname":"北碚区",
"importance":"[]",
"shopid":"[]",
"shopinfo":"0",
"poiweight":"[]",
"parking_type":null,
"avg_price":null,
"avg_price_type":null
},
{
"id":"B0FFG64XK3",
"name":"易捷便利店(兴旺华都西南)",
"type":"购物服务;便民商店\/便利店;便民商店\/便利店",
"typecode":"060200",
"biz_type":"[]",
"address":"北金路西50米",
"location":"106.430138,29.804152",
"tel":"[]",
"distance":"[]",
"biz_ext":"[]",
"pname":"重庆市",
"cityname":"重庆市",
"adname":"北碚区",
"importance":"[]",
"shopid":"[]",
"shopinfo":"0",
"poiweight":"[]",
"parking_type":null,
"avg_price":null,
"avg_price_type":null
},
{
"id":"B0FFG64ZJ9",
"name":"易捷便利店",
"type":"购物服务;便民商店\/便利店;便民商店\/便利店",
"typecode":"060200",
"biz_type":"[]",
"address":"渝南路47-95号附近",
"location":"106.479682,29.779336",
"tel":"[]",
"distance":"[]",
"biz_ext":"[]",
"pname":"重庆市",
"cityname":"重庆市",
"adname":"北碚区",
"importance":"[]",
"shopid":"[]",
"shopinfo":"[]",
"poiweight":"[]",
"parking_type":null,
"avg_price":null,
"avg_price_type":null
},
{
"id":"B0FFG65G7A",
"name":"易捷便利店(同康路)",
"type":"购物服务;便民商店\/便利店;便民商店\/便利店",
"typecode":"060200",
"biz_type":"[]",
"address":"渝南路179附近",
"location":"106.455653,29.720166",
"tel":"[]",
"distance":"[]",
"biz_ext":"[]",
"pname":"重庆市",
"cityname":"重庆市",
"adname":"北碚区",
"importance":"[]",
"shopid":"[]",
"shopinfo":"0",
"poiweight":"[]",
"parking_type":null,
"avg_price":null,
"avg_price_type":null
},
{
"id":"B0FFG6W69O",
"name":"金金副食",
"type":"购物服务;便民商店\/便利店;便民商店\/便利店",
"typecode":"060200",
"biz_type":"[]",
"address":"复兴街73附5号附近",
"location":"106.561643,29.814909",
"tel":"023-66238104",
"distance":"[]",
"biz_ext":"[]",
"pname":"重庆市",
"cityname":"重庆市",
"adname":"北碚区",
"importance":"[]",
"shopid":"[]",
"shopinfo":"0",
"poiweight":"[]",
"parking_type":null,
"avg_price":null,
"avg_price_type":null
},
{
"id":"B0FFG70FYM",
"name":"碚倍佳",
"type":"购物服务;便民商店\/便利店;便民商店\/便利店",
"typecode":"060200",
"biz_type":"[]",
"address":"金华路328号附4号",
"location":"106.416931,29.825733",
"tel":"18203012373;15723358540",
"distance":"[]",
"biz_ext":"[]",
"pname":"重庆市",
"cityname":"重庆市",
"adname":"北碚区",
"importance":"[]",
"shopid":"[]",
"shopinfo":"0",
"poiweight":"[]",
"parking_type":null,
"avg_price":null,
"avg_price_type":null
},
{
"id":"B0FFGA9594",
"name":"人乙副食店",
"type":"购物服务;超级市场;超市",
"typecode":"060400",
"biz_type":"[]",
"address":"中山路43号",
"location":"106.439880,29.827370",
"tel":"[]",
"distance":"[]",
"biz_ext":"[]",
"pname":"重庆市",
"cityname":"重庆市",
"adname":"北碚区",
"importance":"[]",
"shopid":"[]",
"shopinfo":"0",
"poiweight":"[]",
"parking_type":null,
"avg_price":null,
"avg_price_type":null
},
{
"id":"B0FFGAC75J",
"name":"香半边副食",
"type":"购物服务;便民商店\/便利店;便民商店\/便利店",
"typecode":"060200",
"biz_type":"[]",
"address":"辽宁路2号",
"location":"106.439659,29.830636",
"tel":"023-68284230;023-68221558",
"distance":"[]",
"biz_ext":"[]",
"pname":"重庆市",
"cityname":"重庆市",
"adname":"北碚区",
"importance":"[]",
"shopid":"[]",
"shopinfo":"0",
"poiweight":"[]",
"parking_type":null,
"avg_price":null,
"avg_price_type":null
},
{
"id":"B0FFGAK1Q1",
"name":"浩然小铺(城南店)",
"type":"购物服务;便民商店\/便利店;便民商店\/便利店",
"typecode":"060200",
"biz_type":"[]",
"address":"北温泉街道云华路500号1-2",
"location":"106.404640,29.799665",
"tel":"[]",
"distance":"[]",
"biz_ext":"[]",
"pname":"重庆市",
"cityname":"重庆市",
"adname":"北碚区",
"importance":"[]",
"shopid":"[]",
"shopinfo":"0",
"poiweight":"[]",
"parking_type":null,
"avg_price":null,
"avg_price_type":null
},
{
"id":"B0FFGAM5L6",
"name":"碚业综合便民服务店",
"type":"购物服务;便民商店\/便利店;便民商店\/便利店",
"typecode":"060200",
"biz_type":"[]",
"address":"缙泉路61号",
"location":"106.414168,29.830738",
"tel":"[]",
"distance":"[]",
"biz_ext":"[]",
"pname":"重庆市",
"cityname":"重庆市",
"adname":"北碚区",
"importance":"[]",
"shopid":"[]",
"shopinfo":"0",
"poiweight":"[]",
"parking_type":null,
"avg_price":null,
"avg_price_type":null
},
{
"id":"B0FFGBGANF",
"name":"优Ho社区便利店(旺德旺城店)",
"type":"购物服务;便民商店\/便利店;便民商店\/便利店",
"typecode":"060200",
"biz_type":"[]",
"address":"文星湾115号附8号旺德大厦",
"location":"106.434715,29.830980",
"tel":"18628245958",
"distance":"[]",
"biz_ext":"[]",
"pname":"重庆市",
"cityname":"重庆市",
"adname":"北碚区",
"importance":"[]",
"shopid":"[]",
"shopinfo":"0",
"poiweight":"[]",
"parking_type":null,
"avg_price":null,
"avg_price_type":null
},
{
"id":"B0FFGBHH3Y",
"name":"洋腾百货(城北店)",
"type":"购物服务;超级市场;超市",
"typecode":"060400",
"biz_type":"[]",
"address":"团山三路与金华路交叉口东北50米",
"location":"106.425148,29.830535",
"tel":"[]",
"distance":"[]",
"biz_ext":"[]",
"pname":"重庆市",
"cityname":"重庆市",
"adname":"北碚区",
"importance":"[]",
"shopid":"[]",
"shopinfo":"0",
"poiweight":"[]",
"parking_type":null,
"avg_price":null,
"avg_price_type":null
},
{
"id":"B0FFGBL68N",
"name":"尹杨副食批发",
"type":"购物服务;便民商店\/便利店;便民商店\/便利店",
"typecode":"060200",
"biz_type":"[]",
"address":"城南新区文远路121号",
"location":"106.388361,29.801363",
"tel":"023-60301563",
"distance":"[]",
"biz_ext":"[]",
"pname":"重庆市",
"cityname":"重庆市",
"adname":"北碚区",
"importance":"[]",
"shopid":"[]",
"shopinfo":"0",
"poiweight":"[]",
"parking_type":null,
"avg_price":null,
"avg_price_type":null
},
{
"id":"B0FFGBME51",
"name":"群荣副食",
"type":"购物服务;便民商店\/便利店;便民商店\/便利店",
"typecode":"060200",
"biz_type":"[]",
"address":"将军路94栋2单元7-3",
"location":"106.411483,29.806133",
"tel":"[]",
"distance":"[]",
"biz_ext":"[]",
"pname":"重庆市",
"cityname":"重庆市",
"adname":"北碚区",
"importance":"[]",
"shopid":"[]",
"shopinfo":"0",
"poiweight":"[]",
"parking_type":null,
"avg_price":null,
"avg_price_type":null
},
{
"id":"B0FFGBP808",
"name":"怀李小卖部",
"type":"购物服务;便民商店\/便利店;便民商店\/便利店",
"typecode":"060200",
"biz_type":"[]",
"address":"黑龙江巷25号附2号",
"location":"106.434684,29.829521",
"tel":"[]",
"distance":"[]",
"biz_ext":"[]",
"pname":"重庆市",
"cityname":"重庆市",
"adname":"北碚区",
"importance":"[]",
"shopid":"[]",
"shopinfo":"0",
"poiweight":"[]",
"parking_type":null,
"avg_price":null,
"avg_price_type":null
},
{
"id":"B0FFGBRE0I",
"name":"惠兴副食",
"type":"购物服务;便民商店\/便利店;便民商店\/便利店",
"typecode":"060200",
"biz_type":"[]",
"address":"西南大学文星湾文星村191号楼",
"location":"106.431808,29.831272",
"tel":"[]",
"distance":"[]",
"biz_ext":"[]",
"pname":"重庆市",
"cityname":"重庆市",
"adname":"北碚区",
"importance":"[]",
"shopid":"[]",
"shopinfo":"0",
"poiweight":"[]",
"parking_type":null,
"avg_price":null,
"avg_price_type":null
},
{
"id":"B0FFGBS7KJ",
"name":"金树叶副食",
"type":"购物服务;便民商店\/便利店;便民商店\/便利店",
"typecode":"060200",
"biz_type":"[]",
"address":"天生路91号附24号",
"location":"106.424858,29.816932",
"tel":"[]",
"distance":"[]",
"biz_ext":"[]",
"pname":"重庆市",
"cityname":"重庆市",
"adname":"北碚区",
"importance":"[]",
"shopid":"[]",
"shopinfo":"0",
"poiweight":"[]",
"parking_type":null,
"avg_price":null,
"avg_price_type":null
},
{
"id":"B0FFGBSNSV",
"name":"玉生食店",
"type":"购物服务;便民商店\/便利店;便民商店\/便利店",
"typecode":"060200",
"biz_type":"[]",
"address":"城南文远路111号",
"location":"106.388706,29.801922",
"tel":"[]",
"distance":"[]",
"biz_ext":"[]",
"pname":"重庆市",
"cityname":"重庆市",
"adname":"北碚区",
"importance":"[]",
"shopid":"[]",
"shopinfo":"0",
"poiweight":"[]",
"parking_type":null,
"avg_price":null,
"avg_price_type":null
},
{
"id":"B0FFGBSUX9",
"name":"丽云副食",
"type":"购物服务;超级市场;超市",
"typecode":"060400",
"biz_type":"[]",
"address":"天府丽正三期3栋90号门面",
"location":"106.452385,29.842539",
"tel":"[]",
"distance":"[]",
"biz_ext":"[]",
"pname":"重庆市",
"cityname":"重庆市",
"adname":"北碚区",
"importance":"[]",
"shopid":"[]",
"shopinfo":"0",
"poiweight":"[]",
"parking_type":null,
"avg_price":null,
"avg_price_type":null
},
{
"id":"B0FFGBU2IZ",
"name":"天多副食",
"type":"购物服务;便民商店\/便利店;便民商店\/便利店",
"typecode":"060200",
"biz_type":"[]",
"address":"天生新村225号",
"location":"106.438385,29.827882",
"tel":"[]",
"distance":"[]",
"biz_ext":"[]",
"pname":"重庆市",
"cityname":"重庆市",
"adname":"北碚区",
"importance":"[]",
"shopid":"[]",
"shopinfo":"0",
"poiweight":"[]",
"parking_type":null,
"avg_price":null,
"avg_price_type":null
},
{
"id":"B0FFGBW43I",
"name":"建刚副食",
"type":"购物服务;便民商店\/便利店;便民商店\/便利店",
"typecode":"060200",
"biz_type":"[]",
"address":"将军路106号",
"location":"106.411514,29.807826",
"tel":"[]",
"distance":"[]",
"biz_ext":"[]",
"pname":"重庆市",
"cityname":"重庆市",
"adname":"北碚区",
"importance":"[]",
"shopid":"[]",
"shopinfo":"0",
"poiweight":"[]",
"parking_type":null,
"avg_price":null,
"avg_price_type":null
},
{
"id":"B0FFGBWAZ8",
"name":"小汪副食(河嘉路)",
"type":"购物服务;便民商店\/便利店;便民商店\/便利店",
"typecode":"060200",
"biz_type":"[]",
"address":"嘉陵村128号17",
"location":"106.443748,29.819093",
"tel":"[]",
"distance":"[]",
"biz_ext":"[]",
"pname":"重庆市",
"cityname":"重庆市",
"adname":"北碚区",
"importance":"[]",
"shopid":"[]",
"shopinfo":"0",
"poiweight":"[]",
"parking_type":null,
"avg_price":null,
"avg_price_type":null
},
{
"id":"B0FFGC3Y9I",
"name":"复兴服务区昆仑好客(悦复大道)",
"type":"购物服务;便民商店\/便利店;便民商店\/便利店",
"typecode":"060200",
"biz_type":"[]",
"address":"复兴服务区附近",
"location":"106.550075,29.775550",
"tel":"[]",
"distance":"[]",
"biz_ext":"[]",
"pname":"重庆市",
"cityname":"重庆市",
"adname":"北碚区",
"importance":"[]",
"shopid":"[]",
"shopinfo":"0",
"poiweight":"[]",
"parking_type":null,
"avg_price":null,
"avg_price_type":null
},
{
"id":"B0FFGCNE1M",
"name":"乐购",
"type":"购物服务;便民商店\/便利店;便民商店\/便利店",
"typecode":"060200",
"biz_type":"[]",
"address":"碚南大道与缙善路交叉口西南100米",
"location":"106.406534,29.801519",
"tel":"[]",
"distance":"[]",
"biz_ext":"[]",
"pname":"重庆市",
"cityname":"重庆市",
"adname":"北碚区",
"importance":"[]",
"shopid":"[]",
"shopinfo":"0",
"poiweight":"[]",
"parking_type":null,
"avg_price":null,
"avg_price_type":null
},
{
"id":"B0FFGEGPEK",
"name":"美益佳便利店",
"type":"购物服务;便民商店\/便利店;便民商店\/便利店",
"typecode":"060200",
"biz_type":"[]",
"address":"万寿福居45-1-14号",
"location":"106.527713,29.821025",
"tel":"023-60306099;18084053873",
"distance":"[]",
"biz_ext":"[]",
"pname":"重庆市",
"cityname":"重庆市",
"adname":"北碚区",
"importance":"[]",
"shopid":"[]",
"shopinfo":"0",
"poiweight":"[]",
"parking_type":null,
"avg_price":null,
"avg_price_type":null
},
{
"id":"B0FFGEP70Q",
"name":"真诚副食",
"type":"购物服务;便民商店\/便利店;便民商店\/便利店",
"typecode":"060200",
"biz_type":"[]",
"address":"天生丽街地铁站1号口出站口背面",
"location":"106.423400,29.814914",
"tel":"[]",
"distance":"[]",
"biz_ext":"[]",
"pname":"重庆市",
"cityname":"重庆市",
"adname":"北碚区",
"importance":"[]",
"shopid":"[]",
"shopinfo":"0",
"poiweight":"[]",
"parking_type":null,
"avg_price":null,
"avg_price_type":null
},
{
"id":"B0FFGEP9BK",
"name":"丽街便利店",
"type":"购物服务;便民商店\/便利店;便民商店\/便利店",
"typecode":"060200",
"biz_type":"[]",
"address":"天生街道天生地铁站1号口东南50米",
"location":"106.423271,29.814766",
"tel":"[]",
"distance":"[]",
"biz_ext":"[]",
"pname":"重庆市",
"cityname":"重庆市",
"adname":"北碚区",
"importance":"[]",
"shopid":"[]",
"shopinfo":"[]",
"poiweight":"[]",
"parking_type":null,
"avg_price":null,
"avg_price_type":null
},
{
"id":"B0FFGERRAT",
"name":"养老院副食",
"type":"购物服务;便民商店\/便利店;便民商店\/便利店",
"typecode":"060200",
"biz_type":"[]",
"address":"新星路与龙溪路交叉口西北200米",
"location":"106.431499,29.819150",
"tel":"[]",
"distance":"[]",
"biz_ext":"[]",
"pname":"重庆市",
"cityname":"重庆市",
"adname":"北碚区",
"importance":"[]",
"shopid":"[]",
"shopinfo":"0",
"poiweight":"[]",
"parking_type":null,
"avg_price":null,
"avg_price_type":null
},
{
"id":"B0FFGERTMA",
"name":"平凡文化生活馆",
"type":"购物服务;便民商店\/便利店;便民商店\/便利店",
"typecode":"060200",
"biz_type":"[]",
"address":"云泉路55号附2-3号",
"location":"106.434920,29.823477",
"tel":"023-68221543",
"distance":"[]",
"biz_ext":"[]",
"pname":"重庆市",
"cityname":"重庆市",
"adname":"北碚区",
"importance":"[]",
"shopid":"[]",
"shopinfo":"0",
"poiweight":"[]",
"parking_type":null,
"avg_price":null,
"avg_price_type":null
},
{
"id":"B0FFGFTA1Q",
"name":"云清副食便利店",
"type":"购物服务;便民商店\/便利店;便民商店\/便利店",
"typecode":"060200",
"biz_type":"[]",
"address":"云清路209号",
"location":"106.400535,29.801322",
"tel":"13320260918",
"distance":"[]",
"biz_ext":"[]",
"pname":"重庆市",
"cityname":"重庆市",
"adname":"北碚区",
"importance":"[]",
"shopid":"[]",
"shopinfo":"0",
"poiweight":"[]",
"parking_type":null,
"avg_price":null,
"avg_price_type":null
},
{
"id":"B0FFGHOB5A",
"name":"580便利店(云清路)",
"type":"购物服务;便民商店\/便利店;便民商店\/便利店",
"typecode":"060200",
"biz_type":"[]",
"address":"云清路171号",
"location":"106.399536,29.801527",
"tel":"023-81631515",
"distance":"[]",
"biz_ext":"[]",
"pname":"重庆市",
"cityname":"重庆市",
"adname":"北碚区",
"importance":"[]",
"shopid":"[]",
"shopinfo":"0",
"poiweight":"[]",
"parking_type":null,
"avg_price":null,
"avg_price_type":null
},
{
"id":"B0FFGHORYU",
"name":"创新百货(卢作孚路)",
"type":"购物服务;购物相关场所;购物相关场所",
"typecode":"060000",
"biz_type":"[]",
"address":"卢作孚路268号-附33号",
"location":"106.396699,29.799711",
"tel":"[]",
"distance":"[]",
"biz_ext":"[]",
"pname":"重庆市",
"cityname":"重庆市",
"adname":"北碚区",
"importance":"[]",
"shopid":"[]",
"shopinfo":"0",
"poiweight":"[]",
"parking_type":null,
"avg_price":null,
"avg_price_type":null
},
{
"id":"B0FFGHOWUQ",
"name":"NANA的快乐生活",
"type":"购物服务;便民商店\/便利店;便民商店\/便利店",
"typecode":"060200",
"biz_type":"[]",
"address":"云华路与嘉陵风情步行街交叉口东100米",
"location":"106.403503,29.801418",
"tel":"[]",
"distance":"[]",
"biz_ext":"[]",
"pname":"重庆市",
"cityname":"重庆市",
"adname":"北碚区",
"importance":"[]",
"shopid":"[]",
"shopinfo":"0",
"poiweight":"[]",
"parking_type":null,
"avg_price":null,
"avg_price_type":null
},
{
"id":"B0FFGI8T4I",
"name":"陈群副食",
"type":"购物服务;便民商店\/便利店;便民商店\/便利店",
"typecode":"060200",
"biz_type":"[]",
"address":"歇马镇红岩医院附近",
"location":"106.365760,29.759151",
"tel":"[]",
"distance":"[]",
"biz_ext":"[]",
"pname":"重庆市",
"cityname":"重庆市",
"adname":"北碚区",
"importance":"[]",
"shopid":"[]",
"shopinfo":"[]",
"poiweight":"[]",
"parking_type":null,
"avg_price":null,
"avg_price_type":null
},
{
"id":"B0FFGI8T71",
"name":"双凤桥副食店",
"type":"购物服务;便民商店\/便利店;便民商店\/便利店",
"typecode":"060200",
"biz_type":"[]",
"address":"歇马镇",
"location":"106.373647,29.768173",
"tel":"[]",
"distance":"[]",
"biz_ext":"[]",
"pname":"重庆市",
"cityname":"重庆市",
"adname":"北碚区",
"importance":"[]",
"shopid":"[]",
"shopinfo":"0",
"poiweight":"[]",
"parking_type":null,
"avg_price":null,
"avg_price_type":null
},
{
"id":"B0FFGI8T7E",
"name":"桥边副食",
"type":"购物服务;便民商店\/便利店;便民商店\/便利店",
"typecode":"060200",
"biz_type":"[]",
"address":"双元大道东50米",
"location":"106.374264,29.768848",
"tel":"[]",
"distance":"[]",
"biz_ext":"[]",
"pname":"重庆市",
"cityname":"重庆市",
"adname":"北碚区",
"importance":"[]",
"shopid":"[]",
"shopinfo":"0",
"poiweight":"[]",
"parking_type":null,
"avg_price":null,
"avg_price_type":null
},
{
"id":"B0FFGI9AUY",
"name":"老作坊",
"type":"购物服务;便民商店\/便利店;便民商店\/便利店",
"typecode":"060200",
"biz_type":"[]",
"address":"歇马路41号3-5-1江南火锅对面",
"location":"106.367950,29.761434",
"tel":"[]",
"distance":"[]",
"biz_ext":"[]",
"pname":"重庆市",
"cityname":"重庆市",
"adname":"北碚区",
"importance":"[]",
"shopid":"[]",
"shopinfo":"0",
"poiweight":"[]",
"parking_type":null,
"avg_price":null,
"avg_price_type":null
},
{
"id":"B0FFGIA56F",
"name":"宜买副食",
"type":"购物服务;便民商店\/便利店;便民商店\/便利店",
"typecode":"060200",
"biz_type":"[]",
"address":"文远路44号附近",
"location":"106.388827,29.802590",
"tel":"[]",
"distance":"[]",
"biz_ext":"[]",
"pname":"重庆市",
"cityname":"重庆市",
"adname":"北碚区",
"importance":"[]",
"shopid":"[]",
"shopinfo":"0",
"poiweight":"[]",
"parking_type":null,
"avg_price":null,
"avg_price_type":null
},
{
"id":"B0FFGIDJ48",
"name":"王正副食",
"type":"购物服务;便民商店\/便利店;便民商店\/便利店",
"typecode":"060200",
"biz_type":"[]",
"address":"双元大道东50米",
"location":"106.378426,29.773789",
"tel":"[]",
"distance":"[]",
"biz_ext":"[]",
"pname":"重庆市",
"cityname":"重庆市",
"adname":"北碚区",
"importance":"[]",
"shopid":"[]",
"shopinfo":"0",
"poiweight":"[]",
"parking_type":null,
"avg_price":null,
"avg_price_type":null
},
{
"id":"B0FFGIDJ4D",
"name":"车站副食",
"type":"购物服务;便民商店\/便利店;便民商店\/便利店",
"typecode":"060200",
"biz_type":"[]",
"address":"双元大道东50米",
"location":"106.378040,29.773821",
"tel":"[]",
"distance":"[]",
"biz_ext":"[]",
"pname":"重庆市",
"cityname":"重庆市",
"adname":"北碚区",
"importance":"[]",
"shopid":"[]",
"shopinfo":"0",
"poiweight":"[]",
"parking_type":null,
"avg_price":null,
"avg_price_type":null
},
{
"id":"B0FFGIJ6UW",
"name":"谢氏副食",
"type":"购物服务;便民商店\/便利店;便民商店\/便利店",
"typecode":"060200",
"biz_type":"[]",
"address":"歇马路46号",
"location":"106.370611,29.765621",
"tel":"[]",
"distance":"[]",
"biz_ext":"[]",
"pname":"重庆市",
"cityname":"重庆市",
"adname":"北碚区",
"importance":"[]",
"shopid":"[]",
"shopinfo":"0",
"poiweight":"[]",
"parking_type":null,
"avg_price":null,
"avg_price_type":null
},
{
"id":"B0FFGIZCW7",
"name":"阿迪达斯(重庆百货北碚商场)",
"type":"购物服务;专卖店;儿童用品店|购物服务;体育用品店;阿迪达斯专卖店",
"typecode":"061207|060903",
"biz_type":"[]",
"address":"天生街道天生新村63号重庆百货(北碚商场)F5层",
"location":"106.436265,29.826592",
"tel":"[]",
"distance":"[]",
"biz_ext":"[]",
"pname":"重庆市",
"cityname":"重庆市",
"adname":"北碚区",
"importance":"[]",
"shopid":"[]",
"shopinfo":"0",
"poiweight":"[]",
"parking_type":null,
"avg_price":null,
"avg_price_type":null
},
{
"id":"B0FFGJ08BN",
"name":"车站小卖部",
"type":"购物服务;便民商店\/便利店;便民商店\/便利店",
"typecode":"060200",
"biz_type":"[]",
"address":"童家溪镇同兴南路122号菜市场路边",
"location":"106.444070,29.664650",
"tel":"[]",
"distance":"[]",
"biz_ext":"[]",
"pname":"重庆市",
"cityname":"重庆市",
"adname":"北碚区",
"importance":"[]",
"shopid":"[]",
"shopinfo":"0",
"poiweight":"[]",
"parking_type":null,
"avg_price":null,
"avg_price_type":null
},
{
"id":"B0FFGJ0PC9",
"name":"鑫淇批发部",
"type":"购物服务;便民商店\/便利店;便民商店\/便利店",
"typecode":"060200",
"biz_type":"[]",
"address":"童家溪镇同兴南路122号",
"location":"106.444080,29.664648",
"tel":"[]",
"distance":"[]",
"biz_ext":"[]",
"pname":"重庆市",
"cityname":"重庆市",
"adname":"北碚区",
"importance":"[]",
"shopid":"[]",
"shopinfo":"0",
"poiweight":"[]",
"parking_type":null,
"avg_price":null,
"avg_price_type":null
},
{
"id":"B0FFGJ1EKQ",
"name":"熊家院副食商店",
"type":"购物服务;购物相关场所;购物相关场所",
"typecode":"060000",
"biz_type":"[]",
"address":"文星湾48号",
"location":"106.436089,29.831849",
"tel":"[]",
"distance":"[]",
"biz_ext":"[]",
"pname":"重庆市",
"cityname":"重庆市",
"adname":"北碚区",
"importance":"[]",
"shopid":"[]",
"shopinfo":"0",
"poiweight":"[]",
"parking_type":null,
"avg_price":null,
"avg_price_type":null
},
{
"id":"B0FFGK0JB8",
"name":"若家便利店(天生丽街南)",
"type":"购物服务;便民商店\/便利店;便民商店\/便利店",
"typecode":"060200",
"biz_type":"[]",
"address":"天生路2号天生丽街F1",
"location":"106.423133,29.814559",
"tel":"[]",
"distance":"[]",
"biz_ext":"[]",
"pname":"重庆市",
"cityname":"重庆市",
"adname":"北碚区",
"importance":"[]",
"shopid":"[]",
"shopinfo":"0",
"poiweight":"[]",
"parking_type":null,
"avg_price":null,
"avg_price_type":null
},
{
"id":"B0FFGK7QAJ",
"name":"鸿文副食",
"type":"购物服务;便民商店\/便利店;便民商店\/便利店",
"typecode":"060200",
"biz_type":"[]",
"address":"将军路与文藻路交叉口南100米",
"location":"106.412353,29.803342",
"tel":"023-68868769",
"distance":"[]",
"biz_ext":"[]",
"pname":"重庆市",
"cityname":"重庆市",
"adname":"北碚区",
"importance":"[]",
"shopid":"[]",
"shopinfo":"0",
"poiweight":"[]",
"parking_type":null,
"avg_price":null,
"avg_price_type":null
},
{
"id":"B0FFGKBFBE",
"name":"勤劳副食经营部",
"type":"购物服务;便民商店\/便利店;便民商店\/便利店",
"typecode":"060200",
"biz_type":"[]",
"address":"歇马路与296县道交叉口东北100米",
"location":"106.366223,29.757942",
"tel":"023-68242603;13883131891",
"distance":"[]",
"biz_ext":"[]",
"pname":"重庆市",
"cityname":"重庆市",
"adname":"北碚区",
"importance":"[]",
"shopid":"[]",
"shopinfo":"0",
"poiweight":"[]",
"parking_type":null,
"avg_price":null,
"avg_price_type":null
},
{
"id":"B0FFGKBIA9",
"name":"好友商店",
"type":"购物服务;便民商店\/便利店;便民商店\/便利店",
"typecode":"060200",
"biz_type":"[]",
"address":"歇马路与296县道交叉口西北50米",
"location":"106.365540,29.757383",
"tel":"[]",
"distance":"[]",
"biz_ext":"[]",
"pname":"重庆市",
"cityname":"重庆市",
"adname":"北碚区",
"importance":"[]",
"shopid":"[]",
"shopinfo":"0",
"poiweight":"[]",
"parking_type":null,
"avg_price":null,
"avg_price_type":null
},
{
"id":"B0FFGL5BY9",
"name":"浩轩多元店",
"type":"购物服务;便民商店\/便利店;便民商店\/便利店",
"typecode":"060200",
"biz_type":"[]",
"address":"将军路京华雅苑旁",
"location":"106.412345,29.803247",
"tel":"[]",
"distance":"[]",
"biz_ext":"[]",
"pname":"重庆市",
"cityname":"重庆市",
"adname":"北碚区",
"importance":"[]",
"shopid":"[]",
"shopinfo":"0",
"poiweight":"[]",
"parking_type":null,
"avg_price":null,
"avg_price_type":null
},
{
"id":"B0FFGL7ZDF",
"name":"林鑫副食",
"type":"购物服务;便民商店\/便利店;便民商店\/便利店",
"typecode":"060200",
"biz_type":"[]",
"address":"辽宁路公安分局离退休党支部管委会对面",
"location":"106.438293,29.829679",
"tel":"[]",
"distance":"[]",
"biz_ext":"[]",
"pname":"重庆市",
"cityname":"重庆市",
"adname":"北碚区",
"importance":"[]",
"shopid":"[]",
"shopinfo":"0",
"poiweight":"[]",
"parking_type":null,
"avg_price":null,
"avg_price_type":null
},
{
"id":"B0FFGLDXDK",
"name":"天友服务中心(缙美路)",
"type":"购物服务;便民商店\/便利店;便民商店\/便利店",
"typecode":"060200",
"biz_type":"[]",
"address":"双元大道与缙美路交叉口东南100米",
"location":"106.401535,29.805995",
"tel":"[]",
"distance":"[]",
"biz_ext":"[]",
"pname":"重庆市",
"cityname":"重庆市",
"adname":"北碚区",
"importance":"[]",
"shopid":"[]",
"shopinfo":"0",
"poiweight":"[]",
"parking_type":null,
"avg_price":null,
"avg_price_type":null
},
{
"id":"B0FFGLMP2R",
"name":"顺兴副食",
"type":"购物服务;便民商店\/便利店;便民商店\/便利店",
"typecode":"060200",
"biz_type":"[]",
"address":"龙凤路西50米",
"location":"106.433276,29.805151",
"tel":"[]",
"distance":"[]",
"biz_ext":"[]",
"pname":"重庆市",
"cityname":"重庆市",
"adname":"北碚区",
"importance":"[]",
"shopid":"[]",
"shopinfo":"0",
"poiweight":"[]",
"parking_type":null,
"avg_price":null,
"avg_price_type":null
},
{
"id":"B0FFGLMP2Z",
"name":"车站副食店",
"type":"购物服务;超级市场;超市",
"typecode":"060400",
"biz_type":"[]",
"address":"龙凤路东50米",
"location":"106.432250,29.803460",
"tel":"[]",
"distance":"[]",
"biz_ext":"[]",
"pname":"重庆市",
"cityname":"重庆市",
"adname":"北碚区",
"importance":"[]",
"shopid":"[]",
"shopinfo":"0",
"poiweight":"[]",
"parking_type":null,
"avg_price":null,
"avg_price_type":null
},
{
"id":"B0FFGLMP3L",
"name":"南鑫食品饮料批发部",
"type":"购物服务;便民商店\/便利店;便民商店\/便利店",
"typecode":"060200",
"biz_type":"[]",
"address":"将军路114号",
"location":"106.411575,29.807832",
"tel":"[]",
"distance":"[]",
"biz_ext":"[]",
"pname":"重庆市",
"cityname":"重庆市",
"adname":"北碚区",
"importance":"[]",
"shopid":"[]",
"shopinfo":"0",
"poiweight":"[]",
"parking_type":null,
"avg_price":null,
"avg_price_type":null
},
{
"id":"B0FFGLMP3M",
"name":"金唐副食",
"type":"购物服务;便民商店\/便利店;便民商店\/便利店",
"typecode":"060200",
"biz_type":"[]",
"address":"北温泉街道城南中医院京华雅苑",
"location":"106.412361,29.803407",
"tel":"[]",
"distance":"[]",
"biz_ext":"[]",
"pname":"重庆市",
"cityname":"重庆市",
"adname":"北碚区",
"importance":"[]",
"shopid":"[]",
"shopinfo":"0",
"poiweight":"[]",
"parking_type":null,
"avg_price":null,
"avg_price_type":null
},
{
"id":"B0FFGLMP3Y",
"name":"对又来副食店",
"type":"购物服务;便民商店\/便利店;便民商店\/便利店",
"typecode":"060200",
"biz_type":"[]",
"address":"龙凤桥街道火车站巴士公司对面",
"location":"106.433720,29.805934",
"tel":"[]",
"distance":"[]",
"biz_ext":"[]",
"pname":"重庆市",
"cityname":"重庆市",
"adname":"北碚区",
"importance":"[]",
"shopid":"[]",
"shopinfo":"0",
"poiweight":"[]",
"parking_type":null,
"avg_price":null,
"avg_price_type":null
},
{
"id":"B0FFGLMP41",
"name":"治中副食店",
"type":"购物服务;便民商店\/便利店;便民商店\/便利店",
"typecode":"060200",
"biz_type":"[]",
"address":"北金路与龙凤路交叉口东南150米",
"location":"106.432978,29.806524",
"tel":"[]",
"distance":"[]",
"biz_ext":"[]",
"pname":"重庆市",
"cityname":"重庆市",
"adname":"北碚区",
"importance":"[]",
"shopid":"[]",
"shopinfo":"0",
"poiweight":"[]",
"parking_type":null,
"avg_price":null,
"avg_price_type":null
},
{
"id":"B0FFGLMVUL",
"name":"廷忠副食",
"type":"购物服务;便民商店\/便利店;便民商店\/便利店",
"typecode":"060200",
"biz_type":"[]",
"address":"龙凤路西50米",
"location":"106.431392,29.802704",
"tel":"[]",
"distance":"[]",
"biz_ext":"[]",
"pname":"重庆市",
"cityname":"重庆市",
"adname":"北碚区",
"importance":"[]",
"shopid":"[]",
"shopinfo":"0",
"poiweight":"[]",
"parking_type":null,
"avg_price":null,
"avg_price_type":null
},
{
"id":"B0FFGLND6W",
"name":"我家邻里便利店",
"type":"购物服务;超级市场;超市",
"typecode":"060400",
"biz_type":"[]",
"address":"将军路176号附近",
"location":"106.412224,29.805700",
"tel":"[]",
"distance":"[]",
"biz_ext":"[]",
"pname":"重庆市",
"cityname":"重庆市",
"adname":"北碚区",
"importance":"[]",
"shopid":"[]",
"shopinfo":"0",
"poiweight":"[]",
"parking_type":null,
"avg_price":null,
"avg_price_type":null
},
{
"id":"B0FFGLPKIU",
"name":"爱贝爱NANA的快乐生活(北碚店)",
"type":"购物服务;便民商店\/便利店;便民商店\/便利店",
"typecode":"060200",
"biz_type":"[]",
"address":"嘉陵风情步行街与康宁路交叉口北50米",
"location":"106.404922,29.799549",
"tel":"13330289878",
"distance":"[]",
"biz_ext":"[]",
"pname":"重庆市",
"cityname":"重庆市",
"adname":"北碚区",
"importance":"[]",
"shopid":"[]",
"shopinfo":"0",
"poiweight":"[]",
"parking_type":null,
"avg_price":null,
"avg_price_type":null
},
{
"id":"B0FFGLPXZN",
"name":"洪媛百货",
"type":"购物服务;便民商店\/便利店;便民商店\/便利店",
"typecode":"060200",
"biz_type":"[]",
"address":"中山路117号附近",
"location":"106.435607,29.824371",
"tel":"[]",
"distance":"[]",
"biz_ext":"[]",
"pname":"重庆市",
"cityname":"重庆市",
"adname":"北碚区",
"importance":"[]",
"shopid":"[]",
"shopinfo":"0",
"poiweight":"[]",
"parking_type":null,
"avg_price":null,
"avg_price_type":null
},
{
"id":"B0FFGLPYM3",
"name":"温老幺副食店",
"type":"购物服务;便民商店\/便利店;便民商店\/便利店",
"typecode":"060200",
"biz_type":"[]",
"address":"胜利村17附11号",
"location":"106.436584,29.823225",
"tel":"023-86029698",
"distance":"[]",
"biz_ext":"[]",
"pname":"重庆市",
"cityname":"重庆市",
"adname":"北碚区",
"importance":"[]",
"shopid":"[]",
"shopinfo":"0",
"poiweight":"[]",
"parking_type":null,
"avg_price":null,
"avg_price_type":null
},
{
"id":"B0FFGLQOC7",
"name":"富发副食",
"type":"购物服务;便民商店\/便利店;便民商店\/便利店",
"typecode":"060200",
"biz_type":"[]",
"address":"新星路与胜利街交叉口西50米",
"location":"106.436290,29.822089",
"tel":"[]",
"distance":"[]",
"biz_ext":"[]",
"pname":"重庆市",
"cityname":"重庆市",
"adname":"北碚区",
"importance":"[]",
"shopid":"[]",
"shopinfo":"0",
"poiweight":"[]",
"parking_type":null,
"avg_price":null,
"avg_price_type":null
},
{
"id":"B0FFGLS6CU",
"name":"囍副食",
"type":"购物服务;便民商店\/便利店;便民商店\/便利店",
"typecode":"060200",
"biz_type":"[]",
"address":"云泉路45号",
"location":"106.435957,29.822661",
"tel":"[]",
"distance":"[]",
"biz_ext":"[]",
"pname":"重庆市",
"cityname":"重庆市",
"adname":"北碚区",
"importance":"[]",
"shopid":"[]",
"shopinfo":"0",
"poiweight":"[]",
"parking_type":null,
"avg_price":null,
"avg_price_type":null
},
{
"id":"B0FFGNOV4T",
"name":"乐康食品商行",
"type":"购物服务;便民商店\/便利店;便民商店\/便利店",
"typecode":"060200",
"biz_type":"[]",
"address":"劳动村4号附1号",
"location":"106.436691,29.819448",
"tel":"023-61914975;15826152542",
"distance":"[]",
"biz_ext":"[]",
"pname":"重庆市",
"cityname":"重庆市",
"adname":"北碚区",
"importance":"[]",
"shopid":"[]",
"shopinfo":"0",
"poiweight":"[]",
"parking_type":null,
"avg_price":null,
"avg_price_type":null
},
{
"id":"B0FFGNPPD6",
"name":"渝南副食(碚峡路)",
"type":"购物服务;便民商店\/便利店;便民商店\/便利店",
"typecode":"060200",
"biz_type":"[]",
"address":"劳动村15号附16号",
"location":"106.437072,29.817953",
"tel":"[]",
"distance":"[]",
"biz_ext":"[]",
"pname":"重庆市",
"cityname":"重庆市",
"adname":"北碚区",
"importance":"[]",
"shopid":"[]",
"shopinfo":"0",
"poiweight":"[]",
"parking_type":null,
"avg_price":null,
"avg_price_type":null
},
{
"id":"B0FFGNRPGC",
"name":"吕文国副食批发",
"type":"购物服务;便民商店\/便利店;便民商店\/便利店",
"typecode":"060200",
"biz_type":"[]",
"address":"天生街道劳动村(22队车站后面)",
"location":"106.437812,29.819438",
"tel":"13368389811",
"distance":"[]",
"biz_ext":"[]",
"pname":"重庆市",
"cityname":"重庆市",
"adname":"北碚区",
"importance":"[]",
"shopid":"[]",
"shopinfo":"0",
"poiweight":"[]",
"parking_type":null,
"avg_price":null,
"avg_price_type":null
},
{
"id":"B0FFGO5BOQ",
"name":"平价副食",
"type":"购物服务;便民商店\/便利店;便民商店\/便利店",
"typecode":"060200",
"biz_type":"[]",
"address":"解放路与静宁路交叉口东北50米",
"location":"106.441053,29.831111",
"tel":"[]",
"distance":"[]",
"biz_ext":"[]",
"pname":"重庆市",
"cityname":"重庆市",
"adname":"北碚区",
"importance":"[]",
"shopid":"[]",
"shopinfo":"0",
"poiweight":"[]",
"parking_type":null,
"avg_price":null,
"avg_price_type":null
},
{
"id":"B0FFGO5LCN",
"name":"丽犇副食",
"type":"购物服务;便民商店\/便利店;便民商店\/便利店",
"typecode":"060200",
"biz_type":"[]",
"address":"北泉路北50米",
"location":"106.429473,29.832855",
"tel":"[]",
"distance":"[]",
"biz_ext":"[]",
"pname":"重庆市",
"cityname":"重庆市",
"adname":"北碚区",
"importance":"[]",
"shopid":"[]",
"shopinfo":"0",
"poiweight":"[]",
"parking_type":null,
"avg_price":null,
"avg_price_type":null
},
{
"id":"B0FFGO5LCR",
"name":"玲玲副食(北京路)",
"type":"购物服务;便民商店\/便利店;便民商店\/便利店",
"typecode":"060200",
"biz_type":"[]",
"address":"天津路45号",
"location":"106.440773,29.831577",
"tel":"[]",
"distance":"[]",
"biz_ext":"[]",
"pname":"重庆市",
"cityname":"重庆市",
"adname":"北碚区",
"importance":"[]",
"shopid":"[]",
"shopinfo":"0",
"poiweight":"[]",
"parking_type":null,
"avg_price":null,
"avg_price_type":null
},
{
"id":"B0FFGO5LCV",
"name":"旺旺副食",
"type":"购物服务;便民商店\/便利店;便民商店\/便利店",
"typecode":"060200",
"biz_type":"[]",
"address":"北泉路高粱白酒旁",
"location":"106.434277,29.831580",
"tel":"[]",
"distance":"[]",
"biz_ext":"[]",
"pname":"重庆市",
"cityname":"重庆市",
"adname":"北碚区",
"importance":"[]",
"shopid":"[]",
"shopinfo":"0",
"poiweight":"[]",
"parking_type":null,
"avg_price":null,
"avg_price_type":null
},
{
"id":"B0FFGOA242",
"name":"郭静副食",
"type":"购物服务;便民商店\/便利店;便民商店\/便利店",
"typecode":"060200",
"biz_type":"[]",
"address":"北温泉街道三花石车站",
"location":"106.409017,29.860066",
"tel":"[]",
"distance":"[]",
"biz_ext":"[]",
"pname":"重庆市",
"cityname":"重庆市",
"adname":"北碚区",
"importance":"[]",
"shopid":"[]",
"shopinfo":"0",
"poiweight":"[]",
"parking_type":null,
"avg_price":null,
"avg_price_type":null
},
{
"id":"B0FFGOB7GB",
"name":"智生优活社区便利店",
"type":"购物服务;便民商店\/便利店;便民商店\/便利店",
"typecode":"060200",
"biz_type":"[]",
"address":"朝阳街道文星湾115号附8-9号",
"location":"106.434760,29.831123",
"tel":"[]",
"distance":"[]",
"biz_ext":"[]",
"pname":"重庆市",
"cityname":"重庆市",
"adname":"北碚区",
"importance":"[]",
"shopid":"[]",
"shopinfo":"0",
"poiweight":"[]",
"parking_type":null,
"avg_price":null,
"avg_price_type":null
},
{
"id":"B0FFGPGL8G",
"name":"快购便利店",
"type":"购物服务;便民商店\/便利店;便民商店\/便利店",
"typecode":"060200",
"biz_type":"[]",
"address":"蔡家岗镇两江名居同华路58号",
"location":"106.493567,29.744250",
"tel":"023-68365818",
"distance":"[]",
"biz_ext":"[]",
"pname":"重庆市",
"cityname":"重庆市",
"adname":"北碚区",
"importance":"[]",
"shopid":"[]",
"shopinfo":"0",
"poiweight":"[]",
"parking_type":null,
"avg_price":null,
"avg_price_type":null
},
{
"id":"B0FFGSA4FJ",
"name":"杨姐副食店",
"type":"购物服务;便民商店\/便利店;便民商店\/便利店",
"typecode":"060200",
"biz_type":"[]",
"address":"静宁路38号天奇广场后",
"location":"106.438659,29.827919",
"tel":"[]",
"distance":"[]",
"biz_ext":"[]",
"pname":"重庆市",
"cityname":"重庆市",
"adname":"北碚区",
"importance":"[]",
"shopid":"[]",
"shopinfo":"0",
"poiweight":"[]",
"parking_type":null,
"avg_price":null,
"avg_price_type":null
},
{
"id":"B0FFGSA6QE",
"name":"金旺副食(解放路)",
"type":"购物服务;便民商店\/便利店;便民商店\/便利店",
"typecode":"060200",
"biz_type":"[]",
"address":"解放路186号",
"location":"106.437057,29.827753",
"tel":"[]",
"distance":"[]",
"biz_ext":"[]",
"pname":"重庆市",
"cityname":"重庆市",
"adname":"北碚区",
"importance":"[]",
"shopid":"[]",
"shopinfo":"0",
"poiweight":"[]",
"parking_type":null,
"avg_price":null,
"avg_price_type":null
},
{
"id":"B0FFGSA6QY",
"name":"货比三综合服务部",
"type":"购物服务;便民商店\/便利店;便民商店\/便利店",
"typecode":"060200",
"biz_type":"[]",
"address":"解放路107号",
"location":"106.438041,29.828739",
"tel":"[]",
"distance":"[]",
"biz_ext":"[]",
"pname":"重庆市",
"cityname":"重庆市",
"adname":"北碚区",
"importance":"[]",
"shopid":"[]",
"shopinfo":"0",
"poiweight":"[]",
"parking_type":null,
"avg_price":null,
"avg_price_type":null
},
{
"id":"B0FFGSA6S9",
"name":"增真副食店",
"type":"购物服务;便民商店\/便利店;便民商店\/便利店",
"typecode":"060200",
"biz_type":"[]",
"address":"新村225附1号",
"location":"106.438373,29.827883",
"tel":"[]",
"distance":"[]",
"biz_ext":"[]",
"pname":"重庆市",
"cityname":"重庆市",
"adname":"北碚区",
"importance":"[]",
"shopid":"[]",
"shopinfo":"0",
"poiweight":"[]",
"parking_type":null,
"avg_price":null,
"avg_price_type":null
},
{
"id":"B0FFGSA9W2",
"name":"战秋副食店",
"type":"购物服务;便民商店\/便利店;便民商店\/便利店",
"typecode":"060200",
"biz_type":"[]",
"address":"奔月路78号",
"location":"106.434013,29.819736",
"tel":"[]",
"distance":"[]",
"biz_ext":"[]",
"pname":"重庆市",
"cityname":"重庆市",
"adname":"北碚区",
"importance":"[]",
"shopid":"[]",
"shopinfo":"0",
"poiweight":"[]",
"parking_type":null,
"avg_price":null,
"avg_price_type":null
},
{
"id":"B0FFGTBXQM",
"name":"新村副食店(静宁路)",
"type":"购物服务;便民商店\/便利店;便民商店\/便利店",
"typecode":"060200",
"biz_type":"[]",
"address":"朝阳街道静宁路143号新村地税局对面",
"location":"106.437660,29.826572",
"tel":"[]",
"distance":"[]",
"biz_ext":"[]",
"pname":"重庆市",
"cityname":"重庆市",
"adname":"北碚区",
"importance":"[]",
"shopid":"[]",
"shopinfo":"0",
"poiweight":"[]",
"parking_type":null,
"avg_price":null,
"avg_price_type":null
},
{
"id":"B0FFGTK2KL",
"name":"春雪副食",
"type":"购物服务;便民商店\/便利店;便民商店\/便利店",
"typecode":"060200",
"biz_type":"[]",
"address":"新星路153号附近",
"location":"106.433097,29.818508",
"tel":"[]",
"distance":"[]",
"biz_ext":"[]",
"pname":"重庆市",
"cityname":"重庆市",
"adname":"北碚区",
"importance":"[]",
"shopid":"[]",
"shopinfo":"0",
"poiweight":"[]",
"parking_type":null,
"avg_price":null,
"avg_price_type":null
},
{
"id":"B0FFGVWAGT",
"name":"中庚便利店",
"type":"购物服务;便民商店\/便利店;便民商店\/便利店",
"typecode":"060200",
"biz_type":"[]",
"address":"蔡家岗镇蔡家中庚城云屏路104号",
"location":"106.480924,29.735061",
"tel":"023-68368636;15213322337",
"distance":"[]",
"biz_ext":"[]",
"pname":"重庆市",
"cityname":"重庆市",
"adname":"北碚区",
"importance":"[]",
"shopid":"[]",
"shopinfo":"0",
"poiweight":"[]",
"parking_type":null,
"avg_price":null,
"avg_price_type":null
},
{
"id":"B0FFGVXGMC",
"name":"洋洋副食",
"type":"购物服务;便民商店\/便利店;便民商店\/便利店",
"typecode":"060200",
"biz_type":"[]",
"address":"蔡家岗镇云屏路11号商铺13-5",
"location":"106.482250,29.736013",
"tel":"[]",
"distance":"[]",
"biz_ext":"[]",
"pname":"重庆市",
"cityname":"重庆市",
"adname":"北碚区",
"importance":"[]",
"shopid":"[]",
"shopinfo":"[]",
"poiweight":"[]",
"parking_type":null,
"avg_price":null,
"avg_price_type":null
},
{
"id":"B0FFGX9HU2",
"name":"家家副食(园丁路)",
"type":"购物服务;便民商店\/便利店;便民商店\/便利店",
"typecode":"060200",
"biz_type":"[]",
"address":"园丁路2号",
"location":"106.425369,29.832563",
"tel":"[]",
"distance":"[]",
"biz_ext":"[]",
"pname":"重庆市",
"cityname":"重庆市",
"adname":"北碚区",
"importance":"[]",
"shopid":"[]",
"shopinfo":"0",
"poiweight":"[]",
"parking_type":null,
"avg_price":null,
"avg_price_type":null
},
{
"id":"B0FFGY6ID7",
"name":"畅畅副食",
"type":"购物服务;便民商店\/便利店;便民商店\/便利店",
"typecode":"060200",
"biz_type":"[]",
"address":"天生街道斑竹村5栋(肖涛副食左边那家)",
"location":"106.417587,29.810674",
"tel":"[]",
"distance":"[]",
"biz_ext":"[]",
"pname":"重庆市",
"cityname":"重庆市",
"adname":"北碚区",
"importance":"[]",
"shopid":"[]",
"shopinfo":"0",
"poiweight":"[]",
"parking_type":null,
"avg_price":null,
"avg_price_type":null
},
{
"id":"B0FFH00ETT",
"name":"余杨副食(碚峡路)",
"type":"购物服务;便民商店\/便利店;便民商店\/便利店",
"typecode":"060200",
"biz_type":"[]",
"address":"碚峡路193号",
"location":"106.441062,29.822526",
"tel":"023-68208854",
"distance":"[]",
"biz_ext":"[]",
"pname":"重庆市",
"cityname":"重庆市",
"adname":"北碚区",
"importance":"[]",
"shopid":"[]",
"shopinfo":"0",
"poiweight":"[]",
"parking_type":null,
"avg_price":null,
"avg_price_type":null
},
{
"id":"B0FFH00G1R",
"name":"二妹副食(龙凤路)",
"type":"购物服务;便民商店\/便利店;便民商店\/便利店",
"typecode":"060200",
"biz_type":"[]",
"address":"龙凤桥街道龙凤二村95幢附12号",
"location":"106.432022,29.806619",
"tel":"[]",
"distance":"[]",
"biz_ext":"[]",
"pname":"重庆市",
"cityname":"重庆市",
"adname":"北碚区",
"importance":"[]",
"shopid":"[]",
"shopinfo":"0",
"poiweight":"[]",
"parking_type":null,
"avg_price":null,
"avg_price_type":null
},
{
"id":"B0FFH0V0YR",
"name":"家家副食(缙影公寓东)",
"type":"购物服务;便民商店\/便利店;便民商店\/便利店",
"typecode":"060200",
"biz_type":"[]",
"address":"天生街道渔塘湾213号",
"location":"106.440483,29.820596",
"tel":"[]",
"distance":"[]",
"biz_ext":"[]",
"pname":"重庆市",
"cityname":"重庆市",
"adname":"北碚区",
"importance":"[]",
"shopid":"[]",
"shopinfo":"0",
"poiweight":"[]",
"parking_type":null,
"avg_price":null,
"avg_price_type":null
},
{
"id":"B0FFH23EHR",
"name":"杨成副食批发部",
"type":"购物服务;便民商店\/便利店;便民商店\/便利店",
"typecode":"060200",
"biz_type":"[]",
"address":"郭家沱150附14",
"location":"106.428596,29.834341",
"tel":"[]",
"distance":"[]",
"biz_ext":"[]",
"pname":"重庆市",
"cityname":"重庆市",
"adname":"北碚区",
"importance":"[]",
"shopid":"[]",
"shopinfo":"0",
"poiweight":"[]",
"parking_type":null,
"avg_price":null,
"avg_price_type":null
},
{
"id":"B0FFH26SBE",
"name":"得力办公(重庆百货北碚商场)",
"type":"购物服务;专卖店;书店",
"typecode":"061205",
"biz_type":"[]",
"address":"天生街道天生新村63号重庆百货(北碚商场)F5层",
"location":"106.436132,29.826313",
"tel":"[]",
"distance":"[]",
"biz_ext":"[]",
"pname":"重庆市",
"cityname":"重庆市",
"adname":"北碚区",
"importance":"[]",
"shopid":"[]",
"shopinfo":"0",
"poiweight":"[]",
"parking_type":null,
"avg_price":null,
"avg_price_type":null
},
{
"id":"B0FFH2M14D",
"name":"天全副食",
"type":"购物服务;便民商店\/便利店;便民商店\/便利店",
"typecode":"060200",
"biz_type":"[]",
"address":"北泉路南50米",
"location":"106.429519,29.832593",
"tel":"[]",
"distance":"[]",
"biz_ext":"[]",
"pname":"重庆市",
"cityname":"重庆市",
"adname":"北碚区",
"importance":"[]",
"shopid":"[]",
"shopinfo":"0",
"poiweight":"[]",
"parking_type":null,
"avg_price":null,
"avg_price_type":null
},
{
"id":"B0FFH3W7LZ",
"name":"阳壮农业",
"type":"购物服务;便民商店\/便利店;便民商店\/便利店",
"typecode":"060200",
"biz_type":"[]",
"address":"将军路796号附近",
"location":"106.412429,29.805649",
"tel":"[]",
"distance":"[]",
"biz_ext":"[]",
"pname":"重庆市",
"cityname":"重庆市",
"adname":"北碚区",
"importance":"[]",
"shopid":"[]",
"shopinfo":"[]",
"poiweight":"[]",
"parking_type":null,
"avg_price":null,
"avg_price_type":null
},
{
"id":"B0FFH44BAG",
"name":"小茹副食",
"type":"购物服务;便民商店\/便利店;便民商店\/便利店",
"typecode":"060200",
"biz_type":"[]",
"address":"渝南路与融汇北路交叉口北100米",
"location":"106.434753,29.829521",
"tel":"[]",
"distance":"[]",
"biz_ext":"[]",
"pname":"重庆市",
"cityname":"重庆市",
"adname":"北碚区",
"importance":"[]",
"shopid":"[]",
"shopinfo":"0",
"poiweight":"[]",
"parking_type":null,
"avg_price":null,
"avg_price_type":null
},
{
"id":"B0FFH6WLZJ",
"name":"昆仑好客便利店(河嘉路店)",
"type":"购物服务;便民商店\/便利店;便民商店\/便利店",
"typecode":"060200",
"biz_type":"[]",
"address":"龙溪路16号(近河嘉路)",
"location":"106.441558,29.815954",
"tel":"[]",
"distance":"[]",
"biz_ext":"[]",
"pname":"重庆市",
"cityname":"重庆市",
"adname":"北碚区",
"importance":"[]",
"shopid":"[]",
"shopinfo":"0",
"poiweight":"[]",
"parking_type":null,
"avg_price":null,
"avg_price_type":null
},
{
"id":"B0FFH8NZ1D",
"name":"(团山堡服务区)便利店",
"type":"购物服务;便民商店\/便利店;便民商店\/便利店",
"typecode":"060200",
"biz_type":"[]",
"address":"团山堡服务区",
"location":"106.417726,29.831140",
"tel":"[]",
"distance":"[]",
"biz_ext":"[]",
"pname":"重庆市",
"cityname":"重庆市",
"adname":"北碚区",
"importance":"[]",
"shopid":"[]",
"shopinfo":"0",
"poiweight":"[]",
"parking_type":null,
"avg_price":null,
"avg_price_type":null
},
{
"id":"B0FFH8XLHN",
"name":"王七副食批发部",
"type":"购物服务;便民商店\/便利店;便民商店\/便利店",
"typecode":"060200",
"biz_type":"[]",
"address":"北温泉街道将军路598号",
"location":"106.410781,29.803024",
"tel":"023-68290478;023-68290458",
"distance":"[]",
"biz_ext":"[]",
"pname":"重庆市",
"cityname":"重庆市",
"adname":"北碚区",
"importance":"[]",
"shopid":"[]",
"shopinfo":"0",
"poiweight":"[]",
"parking_type":null,
"avg_price":null,
"avg_price_type":null
},
{
"id":"B0FFH9O6UI",
"name":"体育场便民商店",
"type":"购物服务;便民商店\/便利店;便民商店\/便利店",
"typecode":"060200",
"biz_type":"[]",
"address":"天津路50号附近",
"location":"106.441680,29.829206",
"tel":"[]",
"distance":"[]",
"biz_ext":"[]",
"pname":"重庆市",
"cityname":"重庆市",
"adname":"北碚区",
"importance":"[]",
"shopid":"[]",
"shopinfo":"[]",
"poiweight":"[]",
"parking_type":null,
"avg_price":null,
"avg_price_type":null
},
{
"id":"B0FFH9OL4C",
"name":"胖胖便利店(解放路)",
"type":"购物服务;便民商店\/便利店;便民商店\/便利店",
"typecode":"060200",
"biz_type":"[]",
"address":"新村街64号附31号",
"location":"106.436225,29.825786",
"tel":"[]",
"distance":"[]",
"biz_ext":"[]",
"pname":"重庆市",
"cityname":"重庆市",
"adname":"北碚区",
"importance":"[]",
"shopid":"[]",
"shopinfo":"0",
"poiweight":"[]",
"parking_type":null,
"avg_price":null,
"avg_price_type":null
},
{
"id":"B0FFH9OTDM",
"name":"新村副食店(天奇大厦西南)",
"type":"购物服务;便民商店\/便利店;便民商店\/便利店",
"typecode":"060200",
"biz_type":"[]",
"address":"天生新村161号",
"location":"106.438072,29.826982",
"tel":"[]",
"distance":"[]",
"biz_ext":"[]",
"pname":"重庆市",
"cityname":"重庆市",
"adname":"北碚区",
"importance":"[]",
"shopid":"[]",
"shopinfo":"0",
"poiweight":"[]",
"parking_type":null,
"avg_price":null,
"avg_price_type":null
},
{
"id":"B0FFH9RIU4",
"name":"邓二妹副食店",
"type":"购物服务;便民商店\/便利店;便民商店\/便利店",
"typecode":"060200",
"biz_type":"[]",
"address":"西南大学桃花山商业街",
"location":"106.429039,29.828681",
"tel":"13629751815",
"distance":"[]",
"biz_ext":"[]",
"pname":"重庆市",
"cityname":"重庆市",
"adname":"北碚区",
"importance":"[]",
"shopid":"[]",
"shopinfo":"0",
"poiweight":"[]",
"parking_type":null,
"avg_price":null,
"avg_price_type":null
},
{
"id":"B0FFH9RJK1",
"name":"荣才副食配送中心",
"type":"购物服务;便民商店\/便利店;便民商店\/便利店",
"typecode":"060200",
"biz_type":"[]",
"address":"碚峡路289号附近",
"location":"106.437858,29.819166",
"tel":"023-68379456",
"distance":"[]",
"biz_ext":"[]",
"pname":"重庆市",
"cityname":"重庆市",
"adname":"北碚区",
"importance":"[]",
"shopid":"[]",
"shopinfo":"0",
"poiweight":"[]",
"parking_type":null,
"avg_price":null,
"avg_price_type":null
},
{
"id":"B0FFH9RJTY",
"name":"楼梯口副食",
"type":"购物服务;便民商店\/便利店;便民商店\/便利店",
"typecode":"060200",
"biz_type":"[]",
"address":"渔塘湾77号附近",
"location":"106.443214,29.822238",
"tel":"[]",
"distance":"[]",
"biz_ext":"[]",
"pname":"重庆市",
"cityname":"重庆市",
"adname":"北碚区",
"importance":"[]",
"shopid":"[]",
"shopinfo":"0",
"poiweight":"[]",
"parking_type":null,
"avg_price":null,
"avg_price_type":null
},
{
"id":"B0FFH9RJWY",
"name":"奇易社区生活服务站",
"type":"购物服务;便民商店\/便利店;便民商店\/便利店",
"typecode":"060200",
"biz_type":"[]",
"address":"碚峡东路58号",
"location":"106.443420,29.823951",
"tel":"[]",
"distance":"[]",
"biz_ext":"[]",
"pname":"重庆市",
"cityname":"重庆市",
"adname":"北碚区",
"importance":"[]",
"shopid":"[]",
"shopinfo":"0",
"poiweight":"[]",
"parking_type":null,
"avg_price":null,
"avg_price_type":null
},
{
"id":"B0FFH9RK4I",
"name":"8090便利店",
"type":"购物服务;便民商店\/便利店;便民商店\/便利店",
"typecode":"060200",
"biz_type":"[]",
"address":"双柏路123号",
"location":"106.411178,29.810237",
"tel":"[]",
"distance":"[]",
"biz_ext":"[]",
"pname":"重庆市",
"cityname":"重庆市",
"adname":"北碚区",
"importance":"[]",
"shopid":"[]",
"shopinfo":"0",
"poiweight":"[]",
"parking_type":null,
"avg_price":null,
"avg_price_type":null
},
{
"id":"B0FFH9RKYX",
"name":"顺源饮料",
"type":"购物服务;便民商店\/便利店;便民商店\/便利店",
"typecode":"060200",
"biz_type":"[]",
"address":"河嘉路72号附近",
"location":"106.441993,29.821361",
"tel":"[]",
"distance":"[]",
"biz_ext":"[]",
"pname":"重庆市",
"cityname":"重庆市",
"adname":"北碚区",
"importance":"[]",
"shopid":"[]",
"shopinfo":"0",
"poiweight":"[]",
"parking_type":null,
"avg_price":null,
"avg_price_type":null
},
{
"id":"B0FFH9T4G6",
"name":"诚扬副食",
"type":"购物服务;便民商店\/便利店;便民商店\/便利店",
"typecode":"060200",
"biz_type":"[]",
"address":"奔月路135号附2号",
"location":"106.432518,29.819889",
"tel":"023-68860275",
"distance":"[]",
"biz_ext":"[]",
"pname":"重庆市",
"cityname":"重庆市",
"adname":"北碚区",
"importance":"[]",
"shopid":"[]",
"shopinfo":"0",
"poiweight":"[]",
"parking_type":null,
"avg_price":null,
"avg_price_type":null
},
{
"id":"B0FFHBLALI",
"name":"姐妹百货店",
"type":"购物服务;超级市场;超市",
"typecode":"060400",
"biz_type":"[]",
"address":"嘉运二路与同泰三路交叉口北",
"location":"106.473342,29.726998",
"tel":"15723086337",
"distance":"[]",
"biz_ext":"[]",
"pname":"重庆市",
"cityname":"重庆市",
"adname":"北碚区",
"importance":"[]",
"shopid":"[]",
"shopinfo":"0",
"poiweight":"[]",
"parking_type":null,
"avg_price":null,
"avg_price_type":null
},
{
"id":"B0FFHC51DI",
"name":"芙蓉兴盛便利店(蔡家店)",
"type":"购物服务;购物相关场所;购物相关场所",
"typecode":"060000",
"biz_type":"[]",
"address":"童家溪镇同兴工业园",
"location":"106.465262,29.727731",
"tel":"[]",
"distance":"[]",
"biz_ext":"[]",
"pname":"重庆市",
"cityname":"重庆市",
"adname":"北碚区",
"importance":"[]",
"shopid":"[]",
"shopinfo":"0",
"poiweight":"[]",
"parking_type":null,
"avg_price":null,
"avg_price_type":null
},
{
"id":"B0FFHCA1OT",
"name":"滨江副食",
"type":"购物服务;便民商店\/便利店;便民商店\/便利店",
"typecode":"060200",
"biz_type":"[]",
"address":"创造路66号附近",
"location":"106.446006,29.835405",
"tel":"[]",
"distance":"[]",
"biz_ext":"[]",
"pname":"重庆市",
"cityname":"重庆市",
"adname":"北碚区",
"importance":"[]",
"shopid":"[]",
"shopinfo":"0",
"poiweight":"[]",
"parking_type":null,
"avg_price":null,
"avg_price_type":null
},
{
"id":"B0FFHCA217",
"name":"静宁副食店",
"type":"购物服务;便民商店\/便利店;便民商店\/便利店",
"typecode":"060200",
"biz_type":"[]",
"address":"双柏支路与缙美路交叉口东北50米",
"location":"106.402473,29.805967",
"tel":"[]",
"distance":"[]",
"biz_ext":"[]",
"pname":"重庆市",
"cityname":"重庆市",
"adname":"北碚区",
"importance":"[]",
"shopid":"[]",
"shopinfo":"0",
"poiweight":"[]",
"parking_type":null,
"avg_price":null,
"avg_price_type":null
},
{
"id":"B0FFHCA24A",
"name":"校友副食",
"type":"购物服务;便民商店\/便利店;便民商店\/便利店",
"typecode":"060200",
"biz_type":"[]",
"address":"北泉路9号附近",
"location":"106.429389,29.834030",
"tel":"[]",
"distance":"[]",
"biz_ext":"[]",
"pname":"重庆市",
"cityname":"重庆市",
"adname":"北碚区",
"importance":"[]",
"shopid":"[]",
"shopinfo":"0",
"poiweight":"[]",
"parking_type":null,
"avg_price":null,
"avg_price_type":null
},
{
"id":"B0FFHCBI4B",
"name":"海浪庆红副食",
"type":"购物服务;便民商店\/便利店;便民商店\/便利店",
"typecode":"060200",
"biz_type":"[]",
"address":"北京路23号下半城",
"location":"106.440528,29.831174",
"tel":"[]",
"distance":"[]",
"biz_ext":"[]",
"pname":"重庆市",
"cityname":"重庆市",
"adname":"北碚区",
"importance":"[]",
"shopid":"[]",
"shopinfo":"0",
"poiweight":"[]",
"parking_type":null,
"avg_price":null,
"avg_price_type":null
},
{
"id":"B0FFHCBI92",
"name":"顺来副食店",
"type":"购物服务;便民商店\/便利店;便民商店\/便利店",
"typecode":"060200",
"biz_type":"[]",
"address":"南京路与太原路交叉口西50米",
"location":"106.442207,29.831161",
"tel":"13883834125",
"distance":"[]",
"biz_ext":"[]",
"pname":"重庆市",
"cityname":"重庆市",
"adname":"北碚区",
"importance":"[]",
"shopid":"[]",
"shopinfo":"0",
"poiweight":"[]",
"parking_type":null,
"avg_price":null,
"avg_price_type":null
},
{
"id":"B0FFHCBIR6",
"name":"Nana副食批发零售",
"type":"购物服务;便民商店\/便利店;便民商店\/便利店",
"typecode":"060200",
"biz_type":"[]",
"address":"雨台路7号",
"location":"106.405448,29.806283",
"tel":"[]",
"distance":"[]",
"biz_ext":"[]",
"pname":"重庆市",
"cityname":"重庆市",
"adname":"北碚区",
"importance":"[]",
"shopid":"[]",
"shopinfo":"0",
"poiweight":"[]",
"parking_type":null,
"avg_price":null,
"avg_price_type":null
},
{
"id":"B0FFHCBIR9",
"name":"如意副食(蔡顺路)",
"type":"购物服务;便民商店\/便利店;便民商店\/便利店",
"typecode":"060200",
"biz_type":"[]",
"address":"文星湾新房子131号",
"location":"106.430397,29.830528",
"tel":"023-68209843",
"distance":"[]",
"biz_ext":"[]",
"pname":"重庆市",
"cityname":"重庆市",
"adname":"北碚区",
"importance":"[]",
"shopid":"[]",
"shopinfo":"0",
"poiweight":"[]",
"parking_type":null,
"avg_price":null,
"avg_price_type":null
},
{
"id":"B0FFHCBJM5",
"name":"陈军副食",
"type":"购物服务;便民商店\/便利店;便民商店\/便利店",
"typecode":"060200",
"biz_type":"[]",
"address":"太原路41号",
"location":"106.442642,29.830369",
"tel":"[]",
"distance":"[]",
"biz_ext":"[]",
"pname":"重庆市",
"cityname":"重庆市",
"adname":"北碚区",
"importance":"[]",
"shopid":"[]",
"shopinfo":"0",
"poiweight":"[]",
"parking_type":null,
"avg_price":null,
"avg_price_type":null
},
{
"id":"B0FFHCBJVV",
"name":"健捷便利店(重庆市第一师范大学店)",
"type":"购物服务;便民商店\/便利店;便民商店\/便利店",
"typecode":"060200",
"biz_type":"[]",
"address":"北泉街道北泉路100号",
"location":"106.427116,29.832431",
"tel":"17782292806",
"distance":"[]",
"biz_ext":"[]",
"pname":"重庆市",
"cityname":"重庆市",
"adname":"北碚区",
"importance":"[]",
"shopid":"[]",
"shopinfo":"0",
"poiweight":"[]",
"parking_type":null,
"avg_price":null,
"avg_price_type":null
},
{
"id":"B0FFHCCI2T",
"name":"CC便利店",
"type":"购物服务;便民商店\/便利店;便民商店\/便利店",
"typecode":"060200",
"biz_type":"[]",
"address":"中山路与渝南路交叉口东北150米",
"location":"106.434722,29.826276",
"tel":"[]",
"distance":"[]",
"biz_ext":"[]",
"pname":"重庆市",
"cityname":"重庆市",
"adname":"北碚区",
"importance":"[]",
"shopid":"[]",
"shopinfo":"0",
"poiweight":"[]",
"parking_type":null,
"avg_price":null,
"avg_price_type":null
},
{
"id":"B0FFHCDDF9",
"name":"鑫鑫副食店(缙影公寓东)",
"type":"购物服务;便民商店\/便利店;便民商店\/便利店",
"typecode":"060200",
"biz_type":"[]",
"address":"渔塘湾213号附近",
"location":"106.440696,29.820501",
"tel":"[]",
"distance":"[]",
"biz_ext":"[]",
"pname":"重庆市",
"cityname":"重庆市",
"adname":"北碚区",
"importance":"[]",
"shopid":"[]",
"shopinfo":"[]",
"poiweight":"[]",
"parking_type":null,
"avg_price":null,
"avg_price_type":null
},
{
"id":"B0FFHCDDLT",
"name":"天天副食(缙影公寓东)",
"type":"购物服务;便民商店\/便利店;便民商店\/便利店",
"typecode":"060200",
"biz_type":"[]",
"address":"渔塘湾124号1-2(广开糖酒公司旁)",
"location":"106.441970,29.820613",
"tel":"[]",
"distance":"[]",
"biz_ext":"[]",
"pname":"重庆市",
"cityname":"重庆市",
"adname":"北碚区",
"importance":"[]",
"shopid":"[]",
"shopinfo":"0",
"poiweight":"[]",
"parking_type":null,
"avg_price":null,
"avg_price_type":null
},
{
"id":"B0FFHCDEHZ",
"name":"新星副食",
"type":"购物服务;便民商店\/便利店;便民商店\/便利店",
"typecode":"060200",
"biz_type":"[]",
"address":"新星路60号附近",
"location":"106.434265,29.820890",
"tel":"[]",
"distance":"[]",
"biz_ext":"[]",
"pname":"重庆市",
"cityname":"重庆市",
"adname":"北碚区",
"importance":"[]",
"shopid":"[]",
"shopinfo":"0",
"poiweight":"[]",
"parking_type":null,
"avg_price":null,
"avg_price_type":null
},
{
"id":"B0FFHCDF7F",
"name":"燎原副食店",
"type":"购物服务;便民商店\/便利店;便民商店\/便利店",
"typecode":"060200",
"biz_type":"[]",
"address":"龙凤二村19号附68号",
"location":"106.432197,29.812469",
"tel":"[]",
"distance":"[]",
"biz_ext":"[]",
"pname":"重庆市",
"cityname":"重庆市",
"adname":"北碚区",
"importance":"[]",
"shopid":"[]",
"shopinfo":"0",
"poiweight":"[]",
"parking_type":null,
"avg_price":null,
"avg_price_type":null
},
{
"id":"B0FFHCDH6N",
"name":"金三角",
"type":"购物服务;便民商店\/便利店;便民商店\/便利店",
"typecode":"060200",
"biz_type":"[]",
"address":"碚峡路311号",
"location":"106.438987,29.820064",
"tel":"023-68200091",
"distance":"[]",
"biz_ext":"[]",
"pname":"重庆市",
"cityname":"重庆市",
"adname":"北碚区",
"importance":"[]",
"shopid":"[]",
"shopinfo":"0",
"poiweight":"[]",
"parking_type":null,
"avg_price":null,
"avg_price_type":null
},
{
"id":"B0FFHD0IFH",
"name":"瀚洋百货(蔡家店)",
"type":"购物服务;购物相关场所;购物相关场所",
"typecode":"060000",
"biz_type":"[]",
"address":"蔡家岗镇蔡家横街",
"location":"106.473643,29.731938",
"tel":"[]",
"distance":"[]",
"biz_ext":"[]",
"pname":"重庆市",
"cityname":"重庆市",
"adname":"北碚区",
"importance":"[]",
"shopid":"[]",
"shopinfo":"0",
"poiweight":"[]",
"parking_type":null,
"avg_price":null,
"avg_price_type":null
},
{
"id":"B0FFHD0NJJ",
"name":"NAMA24小时便利店",
"type":"购物服务;便民商店\/便利店;便民商店\/便利店",
"typecode":"060200",
"biz_type":"[]",
"address":"胜利街1-附13号附近",
"location":"106.438584,29.825481",
"tel":"[]",
"distance":"[]",
"biz_ext":"[]",
"pname":"重庆市",
"cityname":"重庆市",
"adname":"北碚区",
"importance":"[]",
"shopid":"[]",
"shopinfo":"0",
"poiweight":"[]",
"parking_type":null,
"avg_price":null,
"avg_price_type":null
},
{
"id":"B0FFHD48AU",
"name":"盈香",
"type":"购物服务;便民商店\/便利店;便民商店\/便利店",
"typecode":"060200",
"biz_type":"[]",
"address":"胜利街29号",
"location":"106.437583,29.823638",
"tel":"13509497547",
"distance":"[]",
"biz_ext":"[]",
"pname":"重庆市",
"cityname":"重庆市",
"adname":"北碚区",
"importance":"[]",
"shopid":"[]",
"shopinfo":"0",
"poiweight":"[]",
"parking_type":null,
"avg_price":null,
"avg_price_type":null
},
{
"id":"B0FFHD7OSQ",
"name":"家门口精品生活便利店",
"type":"购物服务;便民商店\/便利店;便民商店\/便利店",
"typecode":"060200",
"biz_type":"[]",
"address":"冯时行路796号附8号",
"location":"106.386087,29.800208",
"tel":"15823006051",
"distance":"[]",
"biz_ext":"[]",
"pname":"重庆市",
"cityname":"重庆市",
"adname":"北碚区",
"importance":"[]",
"shopid":"[]",
"shopinfo":"0",
"poiweight":"[]",
"parking_type":null,
"avg_price":null,
"avg_price_type":null
},
{
"id":"B0FFHDRRPB",
"name":"月华副食(奔月路)",
"type":"购物服务;便民商店\/便利店;便民商店\/便利店",
"typecode":"060200",
"biz_type":"[]",
"address":"天生街道月华村19-1-1",
"location":"106.430877,29.819620",
"tel":"[]",
"distance":"[]",
"biz_ext":"[]",
"pname":"重庆市",
"cityname":"重庆市",
"adname":"北碚区",
"importance":"[]",
"shopid":"[]",
"shopinfo":"0",
"poiweight":"[]",
"parking_type":null,
"avg_price":null,
"avg_price_type":null
},
{
"id":"B0FFHDXS79",
"name":"NANA24小时便利店",
"type":"购物服务;便民商店\/便利店;便民商店\/便利店",
"typecode":"060200",
"biz_type":"[]",
"address":"嘉陵风情步行街与康宁路交叉口东北50米",
"location":"106.404983,29.799460",
"tel":"13648349877",
"distance":"[]",
"biz_ext":"[]",
"pname":"重庆市",
"cityname":"重庆市",
"adname":"北碚区",
"importance":"[]",
"shopid":"[]",
"shopinfo":"0",
"poiweight":"[]",
"parking_type":null,
"avg_price":null,
"avg_price_type":null
},
{
"id":"B0FFHDXS8A",
"name":"阿华副食",
"type":"购物服务;便民商店\/便利店;便民商店\/便利店",
"typecode":"060200",
"biz_type":"[]",
"address":"碚南大道与缙和路交叉口东北50米",
"location":"106.407649,29.801837",
"tel":"[]",
"distance":"[]",
"biz_ext":"[]",
"pname":"重庆市",
"cityname":"重庆市",
"adname":"北碚区",
"importance":"[]",
"shopid":"[]",
"shopinfo":"0",
"poiweight":"[]",
"parking_type":null,
"avg_price":null,
"avg_price_type":null
},
{
"id":"B0FFHDXV3E",
"name":"健身梯商店",
"type":"购物服务;便民商店\/便利店;便民商店\/便利店",
"typecode":"060200",
"biz_type":"[]",
"address":"云清路110号附近",
"location":"106.392586,29.805092",
"tel":"[]",
"distance":"[]",
"biz_ext":"[]",
"pname":"重庆市",
"cityname":"重庆市",
"adname":"北碚区",
"importance":"[]",
"shopid":"[]",
"shopinfo":"0",
"poiweight":"[]",
"parking_type":null,
"avg_price":null,
"avg_price_type":null
},
{
"id":"B0FFHDXV3I",
"name":"安生副食",
"type":"购物服务;便民商店\/便利店;便民商店\/便利店",
"typecode":"060200",
"biz_type":"[]",
"address":"北温泉街道城南新区安礼路80号附30号",
"location":"106.390368,29.801318",
"tel":"[]",
"distance":"[]",
"biz_ext":"[]",
"pname":"重庆市",
"cityname":"重庆市",
"adname":"北碚区",
"importance":"[]",
"shopid":"[]",
"shopinfo":"0",
"poiweight":"[]",
"parking_type":null,
"avg_price":null,
"avg_price_type":null
},
{
"id":"B0FFHDY15M",
"name":"健康便利店",
"type":"购物服务;便民商店\/便利店;便民商店\/便利店",
"typecode":"060200",
"biz_type":"[]",
"address":"北泉路与金华路交叉口东北50米",
"location":"106.427148,29.832311",
"tel":"[]",
"distance":"[]",
"biz_ext":"[]",
"pname":"重庆市",
"cityname":"重庆市",
"adname":"北碚区",
"importance":"[]",
"shopid":"[]",
"shopinfo":"0",
"poiweight":"[]",
"parking_type":null,
"avg_price":null,
"avg_price_type":null
},
{
"id":"B0FFHDY19X",
"name":"宇秀副食",
"type":"购物服务;便民商店\/便利店;便民商店\/便利店",
"typecode":"060200",
"biz_type":"[]",
"address":"冯时行路351号附近",
"location":"106.396783,29.797047",
"tel":"[]",
"distance":"[]",
"biz_ext":"[]",
"pname":"重庆市",
"cityname":"重庆市",
"adname":"北碚区",
"importance":"[]",
"shopid":"[]",
"shopinfo":"0",
"poiweight":"[]",
"parking_type":null,
"avg_price":null,
"avg_price_type":null
},
{
"id":"B0FFHDY1AB",
"name":"宅购副食",
"type":"购物服务;便民商店\/便利店;便民商店\/便利店",
"typecode":"060200",
"biz_type":"[]",
"address":"歇马镇冯时行路351-4",
"location":"106.396711,29.797110",
"tel":"023-68211198",
"distance":"[]",
"biz_ext":"[]",
"pname":"重庆市",
"cityname":"重庆市",
"adname":"北碚区",
"importance":"[]",
"shopid":"[]",
"shopinfo":"0",
"poiweight":"[]",
"parking_type":null,
"avg_price":null,
"avg_price_type":null
},
{
"id":"B0FFHDY1GV",
"name":"便民小店",
"type":"购物服务;便民商店\/便利店;便民商店\/便利店",
"typecode":"060200",
"biz_type":"[]",
"address":"中山路134号附近",
"location":"106.434860,29.825576",
"tel":"[]",
"distance":"[]",
"biz_ext":"[]",
"pname":"重庆市",
"cityname":"重庆市",
"adname":"北碚区",
"importance":"[]",
"shopid":"[]",
"shopinfo":"0",
"poiweight":"[]",
"parking_type":null,
"avg_price":null,
"avg_price_type":null
},
{
"id":"B0FFHE7WGC",
"name":"快的副食店(缙云店)",
"type":"购物服务;便民商店\/便利店;便民商店\/便利店",
"typecode":"060200",
"biz_type":"[]",
"address":"缙云大道29号",
"location":"106.400528,29.814858",
"tel":"18996405733",
"distance":"[]",
"biz_ext":"[]",
"pname":"重庆市",
"cityname":"重庆市",
"adname":"北碚区",
"importance":"[]",
"shopid":"[]",
"shopinfo":"0",
"poiweight":"[]",
"parking_type":null,
"avg_price":null,
"avg_price_type":null
},
{
"id":"B0FFHEC90D",
"name":"木叶便利店",
"type":"购物服务;便民商店\/便利店;便民商店\/便利店",
"typecode":"060200",
"biz_type":"[]",
"address":"天生商业城C区一层18-25号",
"location":"106.434614,29.824431",
"tel":"18225232848",
"distance":"[]",
"biz_ext":"[]",
"pname":"重庆市",
"cityname":"重庆市",
"adname":"北碚区",
"importance":"[]",
"shopid":"[]",
"shopinfo":"0",
"poiweight":"[]",
"parking_type":null,
"avg_price":null,
"avg_price_type":null
},
{
"id":"B0FFHFD1DM",
"name":"郑多多副食",
"type":"购物服务;便民商店\/便利店;便民商店\/便利店",
"typecode":"060200",
"biz_type":"[]",
"address":"双柏支路168号附近",
"location":"106.408125,29.808244",
"tel":"[]",
"distance":"[]",
"biz_ext":"[]",
"pname":"重庆市",
"cityname":"重庆市",
"adname":"北碚区",
"importance":"[]",
"shopid":"[]",
"shopinfo":"0",
"poiweight":"[]",
"parking_type":null,
"avg_price":null,
"avg_price_type":null
},
{
"id":"B0FFHFIY3U",
"name":"天友健康生活馆(金华路)",
"type":"购物服务;便民商店\/便利店;便民商店\/便利店",
"typecode":"060200",
"biz_type":"[]",
"address":"金华路394号附近",
"location":"106.409658,29.818689",
"tel":"[]",
"distance":"[]",
"biz_ext":"[]",
"pname":"重庆市",
"cityname":"重庆市",
"adname":"北碚区",
"importance":"[]",
"shopid":"[]",
"shopinfo":"[]",
"poiweight":"[]",
"parking_type":null,
"avg_price":null,
"avg_price_type":null
},
{
"id":"B0FFHFJCNB",
"name":"易捷便利店(逸景苑东南)",
"type":"购物服务;便民商店\/便利店;便民商店\/便利店",
"typecode":"060200",
"biz_type":"[]",
"address":"双元大道225号附近",
"location":"106.395841,29.799578",
"tel":"[]",
"distance":"[]",
"biz_ext":"[]",
"pname":"重庆市",
"cityname":"重庆市",
"adname":"北碚区",
"importance":"[]",
"shopid":"[]",
"shopinfo":"0",
"poiweight":"[]",
"parking_type":null,
"avg_price":null,
"avg_price_type":null
},
{
"id":"B0FFHFJCQT",
"name":"超音副食",
"type":"购物服务;便民商店\/便利店;便民商店\/便利店",
"typecode":"060200",
"biz_type":"[]",
"address":"卢作孚路与安礼路交叉口东南50米",
"location":"106.392145,29.802669",
"tel":"[]",
"distance":"[]",
"biz_ext":"[]",
"pname":"重庆市",
"cityname":"重庆市",
"adname":"北碚区",
"importance":"[]",
"shopid":"[]",
"shopinfo":"0",
"poiweight":"[]",
"parking_type":null,
"avg_price":null,
"avg_price_type":null
},
{
"id":"B0FFHFJG6L",
"name":"福万家经营部",
"type":"购物服务;便民商店\/便利店;便民商店\/便利店",
"typecode":"060200",
"biz_type":"[]",
"address":"云清路70号附近",
"location":"106.391718,29.805710",
"tel":"[]",
"distance":"[]",
"biz_ext":"[]",
"pname":"重庆市",
"cityname":"重庆市",
"adname":"北碚区",
"importance":"[]",
"shopid":"[]",
"shopinfo":"0",
"poiweight":"[]",
"parking_type":null,
"avg_price":null,
"avg_price_type":null
},
{
"id":"B0FFHFY48T",
"name":"明轩副食经营部",
"type":"购物服务;购物相关场所;购物相关场所",
"typecode":"060000",
"biz_type":"[]",
"address":"龙凤路8号",
"location":"106.432902,29.808227",
"tel":"13628478870",
"distance":"[]",
"biz_ext":"[]",
"pname":"重庆市",
"cityname":"重庆市",
"adname":"北碚区",
"importance":"[]",
"shopid":"[]",
"shopinfo":"0",
"poiweight":"[]",
"parking_type":null,
"avg_price":null,
"avg_price_type":null
},
{
"id":"B0FFHG7A6U",
"name":"好邻居便利店",
"type":"购物服务;便民商店\/便利店;便民商店\/便利店",
"typecode":"060200",
"biz_type":"[]",
"address":"泰吉滨江路如歌饭店旁边",
"location":"106.448553,29.826623",
"tel":"[]",
"distance":"[]",
"biz_ext":"[]",
"pname":"重庆市",
"cityname":"重庆市",
"adname":"北碚区",
"importance":"[]",
"shopid":"[]",
"shopinfo":"0",
"poiweight":"[]",
"parking_type":null,
"avg_price":null,
"avg_price_type":null
},
{
"id":"B0FFHG7M30",
"name":"天贸副食",
"type":"购物服务;便民商店\/便利店;便民商店\/便利店",
"typecode":"060200",
"biz_type":"[]",
"address":"龙凤桥小学门面",
"location":"106.435249,29.812564",
"tel":"023-68217058",
"distance":"[]",
"biz_ext":"[]",
"pname":"重庆市",
"cityname":"重庆市",
"adname":"北碚区",
"importance":"[]",
"shopid":"[]",
"shopinfo":"0",
"poiweight":"[]",
"parking_type":null,
"avg_price":null,
"avg_price_type":null
},
{
"id":"B0FFHG7UEE",
"name":"东方小吃荟萃",
"type":"购物服务;便民商店\/便利店;便民商店\/便利店",
"typecode":"060200",
"biz_type":"[]",
"address":"碚峡西路11号",
"location":"106.439498,29.826629",
"tel":"[]",
"distance":"[]",
"biz_ext":"[]",
"pname":"重庆市",
"cityname":"重庆市",
"adname":"北碚区",
"importance":"[]",
"shopid":"[]",
"shopinfo":"0",
"poiweight":"[]",
"parking_type":null,
"avg_price":null,
"avg_price_type":null
},
{
"id":"B0FFHG9XSP",
"name":"蒋全副食",
"type":"购物服务;便民商店\/便利店;便民商店\/便利店",
"typecode":"060200",
"biz_type":"[]",
"address":"龙凤路生辉龙庭花园西(龙凤三村旁)",
"location":"106.432891,29.812582",
"tel":"[]",
"distance":"[]",
"biz_ext":"[]",
"pname":"重庆市",
"cityname":"重庆市",
"adname":"北碚区",
"importance":"[]",
"shopid":"[]",
"shopinfo":"0",
"poiweight":"[]",
"parking_type":null,
"avg_price":null,
"avg_price_type":null
},
{
"id":"B0FFHGBS6Z",
"name":"重庆银木副食经营部",
"type":"购物服务;便民商店\/便利店;便民商店\/便利店",
"typecode":"060200",
"biz_type":"[]",
"address":"天生路154号",
"location":"106.422431,29.815515",
"tel":"[]",
"distance":"[]",
"biz_ext":"[]",
"pname":"重庆市",
"cityname":"重庆市",
"adname":"北碚区",
"importance":"[]",
"shopid":"[]",
"shopinfo":"0",
"poiweight":"[]",
"parking_type":null,
"avg_price":null,
"avg_price_type":null
},
{
"id":"B0FFHGBTT5",
"name":"山清水秀",
"type":"购物服务;便民商店\/便利店;便民商店\/便利店",
"typecode":"060200",
"biz_type":"[]",
"address":"群兴路与龙凤路交叉口西北50米",
"location":"106.432514,29.808665",
"tel":"[]",
"distance":"[]",
"biz_ext":"[]",
"pname":"重庆市",
"cityname":"重庆市",
"adname":"北碚区",
"importance":"[]",
"shopid":"[]",
"shopinfo":"0",
"poiweight":"[]",
"parking_type":null,
"avg_price":null,
"avg_price_type":null
},
{
"id":"B0FFHHDM3A",
"name":"惠佳鑫便利店",
"type":"购物服务;便民商店\/便利店;便民商店\/便利店",
"typecode":"060200",
"biz_type":"[]",
"address":"冯时行路与双元大道交叉口东200米",
"location":"106.395941,29.797066",
"tel":"[]",
"distance":"[]",
"biz_ext":"[]",
"pname":"重庆市",
"cityname":"重庆市",
"adname":"北碚区",
"importance":"[]",
"shopid":"[]",
"shopinfo":"0",
"poiweight":"[]",
"parking_type":null,
"avg_price":null,
"avg_price_type":null
},
{
"id":"B0FFHIUQ9I",
"name":"祥云便利店",
"type":"购物服务;购物相关场所;购物相关场所",
"typecode":"060000",
"biz_type":"[]",
"address":"复兴镇和源家园祥云街",
"location":"106.556627,29.807780",
"tel":"[]",
"distance":"[]",
"biz_ext":"[]",
"pname":"重庆市",
"cityname":"重庆市",
"adname":"北碚区",
"importance":"[]",
"shopid":"[]",
"shopinfo":"[]",
"poiweight":"[]",
"parking_type":null,
"avg_price":null,
"avg_price_type":null
},
{
"id":"B0FFHJCFFZ",
"name":"NANA便利店",
"type":"购物服务;购物相关场所;购物相关场所",
"typecode":"060000",
"biz_type":"[]",
"address":"云清路169号",
"location":"106.399471,29.801516",
"tel":"[]",
"distance":"[]",
"biz_ext":"[]",
"pname":"重庆市",
"cityname":"重庆市",
"adname":"北碚区",
"importance":"[]",
"shopid":"[]",
"shopinfo":"0",
"poiweight":"[]",
"parking_type":null,
"avg_price":null,
"avg_price_type":null
},
{
"id":"B0FFHJI7BN",
"name":"重庆洋腾百货(云景华庭店)",
"type":"购物服务;超级市场;超市",
"typecode":"060400",
"biz_type":"[]",
"address":"金华路",
"location":"106.417049,29.825244",
"tel":"[]",
"distance":"[]",
"biz_ext":"[]",
"pname":"重庆市",
"cityname":"重庆市",
"adname":"北碚区",
"importance":"[]",
"shopid":"[]",
"shopinfo":"0",
"poiweight":"[]",
"parking_type":null,
"avg_price":null,
"avg_price_type":null
},
{
"id":"B0FFHJWMSW",
"name":"仟佰汇便利店",
"type":"购物服务;便民商店\/便利店;便民商店\/便利店",
"typecode":"060200",
"biz_type":"[]",
"address":"双元大道龙湖紫云台旁",
"location":"106.393839,29.785587",
"tel":"13637773950",
"distance":"[]",
"biz_ext":"[]",
"pname":"重庆市",
"cityname":"重庆市",
"adname":"北碚区",
"importance":"[]",
"shopid":"[]",
"shopinfo":"0",
"poiweight":"[]",
"parking_type":null,
"avg_price":null,
"avg_price_type":null
},
{
"id":"B0FFHMDQDU",
"name":"陈金副食店",
"type":"购物服务;便民商店\/便利店;便民商店\/便利店",
"typecode":"060200",
"biz_type":"[]",
"address":"渝南路北碚段与缙云路交叉口西南50米",
"location":"106.408377,29.859960",
"tel":"[]",
"distance":"[]",
"biz_ext":"[]",
"pname":"重庆市",
"cityname":"重庆市",
"adname":"北碚区",
"importance":"[]",
"shopid":"[]",
"shopinfo":"0",
"poiweight":"[]",
"parking_type":null,
"avg_price":null,
"avg_price_type":null
},
{
"id":"B0FFHMMYZZ",
"name":"谭老幺副食水果便利店",
"type":"购物服务;便民商店\/便利店;便民商店\/便利店",
"typecode":"060200",
"biz_type":"[]",
"address":"渝南路北碚段与缙云路交叉口东100米",
"location":"106.409568,29.860426",
"tel":"[]",
"distance":"[]",
"biz_ext":"[]",
"pname":"重庆市",
"cityname":"重庆市",
"adname":"北碚区",
"importance":"[]",
"shopid":"[]",
"shopinfo":"0",
"poiweight":"[]",
"parking_type":null,
"avg_price":null,
"avg_price_type":null
},
{
"id":"B0FFHMS703",
"name":"顺祥陶瓷(重庆百货北碚商场)",
"type":"购物服务;专卖店;专营店",
"typecode":"061200",
"biz_type":"[]",
"address":"天生街道天生新村63号重庆百货(北碚商场)B1层",
"location":"106.436580,29.826341",
"tel":"[]",
"distance":"[]",
"biz_ext":"[]",
"pname":"重庆市",
"cityname":"重庆市",
"adname":"北碚区",
"importance":"[]",
"shopid":"[]",
"shopinfo":"0",
"poiweight":"[]",
"parking_type":null,
"avg_price":null,
"avg_price_type":null
},
{
"id":"B0FFHMTNS4",
"name":"欧诺(重庆百货北碚商场)",
"type":"购物服务;专卖店;专营店",
"typecode":"061200",
"biz_type":"[]",
"address":"天生街道天生新村63号重庆百货(北碚商场)B1层",
"location":"106.436585,29.826372",
"tel":"[]",
"distance":"[]",
"biz_ext":"[]",
"pname":"重庆市",
"cityname":"重庆市",
"adname":"北碚区",
"importance":"[]",
"shopid":"[]",
"shopinfo":"0",
"poiweight":"[]",
"parking_type":null,
"avg_price":null,
"avg_price_type":null
},
{
"id":"B0FFHMTNSU",
"name":"V CTORINOX(重庆百货北碚商场)",
"type":"购物服务;专卖店;专营店",
"typecode":"061200",
"biz_type":"[]",
"address":"天生街道天生新村63号重庆百货(北碚商场)F4层",
"location":"106.436645,29.826301",
"tel":"[]",
"distance":"[]",
"biz_ext":"[]",
"pname":"重庆市",
"cityname":"重庆市",
"adname":"北碚区",
"importance":"[]",
"shopid":"[]",
"shopinfo":"0",
"poiweight":"[]",
"parking_type":null,
"avg_price":null,
"avg_price_type":null
},
{
"id":"B0FFHMTNSX",
"name":"zippo(重庆百货北碚商场)",
"type":"购物服务;专卖店;专营店",
"typecode":"061200",
"biz_type":"[]",
"address":"天生街道天生新村63号重庆百货(北碚商场)F4层",
"location":"106.436620,29.826304",
"tel":"[]",
"distance":"[]",
"biz_ext":"[]",
"pname":"重庆市",
"cityname":"重庆市",
"adname":"北碚区",
"importance":"[]",
"shopid":"[]",
"shopinfo":"0",
"poiweight":"[]",
"parking_type":null,
"avg_price":null,
"avg_price_type":null
},
{
"id":"B0FFHMTNTI",
"name":"荣泰(重庆百货北碚商场)",
"type":"购物服务;专卖店;专营店",
"typecode":"061200",
"biz_type":"[]",
"address":"天生街道天生新村63号重庆百货(北碚商场)F5层",
"location":"106.436386,29.826519",
"tel":"[]",
"distance":"[]",
"biz_ext":"[]",
"pname":"重庆市",
"cityname":"重庆市",
"adname":"北碚区",
"importance":"[]",
"shopid":"[]",
"shopinfo":"0",
"poiweight":"[]",
"parking_type":null,
"avg_price":null,
"avg_price_type":null
},
{
"id":"B0FFHOA6R3",
"name":"江枫副食",
"type":"购物服务;便民商店\/便利店;便民商店\/便利店",
"typecode":"060200",
"biz_type":"[]",
"address":"东阳政府对面",
"location":"106.450275,29.833653",
"tel":"[]",
"distance":"[]",
"biz_ext":"[]",
"pname":"重庆市",
"cityname":"重庆市",
"adname":"北碚区",
"importance":"[]",
"shopid":"[]",
"shopinfo":"0",
"poiweight":"[]",
"parking_type":null,
"avg_price":null,
"avg_price_type":null
},
{
"id":"B0FFHOC3SR",
"name":"杨洪副食店",
"type":"购物服务;便民商店\/便利店;便民商店\/便利店",
"typecode":"060200",
"biz_type":"[]",
"address":"碚青路西50米",
"location":"106.347688,29.740991",
"tel":"[]",
"distance":"[]",
"biz_ext":"[]",
"pname":"重庆市",
"cityname":"重庆市",
"adname":"北碚区",
"importance":"[]",
"shopid":"[]",
"shopinfo":"0",
"poiweight":"[]",
"parking_type":null,
"avg_price":null,
"avg_price_type":null
},
{
"id":"B0FFHOC3YG",
"name":"兴芳副食店",
"type":"购物服务;便民商店\/便利店;便民商店\/便利店",
"typecode":"060200",
"biz_type":"[]",
"address":"小虎公路与碚青路交叉口北150米",
"location":"106.347388,29.740157",
"tel":"[]",
"distance":"[]",
"biz_ext":"[]",
"pname":"重庆市",
"cityname":"重庆市",
"adname":"北碚区",
"importance":"[]",
"shopid":"[]",
"shopinfo":"0",
"poiweight":"[]",
"parking_type":null,
"avg_price":null,
"avg_price_type":null
},
{
"id":"B0FFHOTTCN",
"name":"桥头商店",
"type":"购物服务;便民商店\/便利店;便民商店\/便利店",
"typecode":"060200",
"biz_type":"[]",
"address":"水土镇屋基村27组21号河溪大桥",
"location":"106.490015,29.788006",
"tel":"[]",
"distance":"[]",
"biz_ext":"[]",
"pname":"重庆市",
"cityname":"重庆市",
"adname":"北碚区",
"importance":"[]",
"shopid":"[]",
"shopinfo":"0",
"poiweight":"[]",
"parking_type":null,
"avg_price":null,
"avg_price_type":null
},
{
"id":"B0FFHQ2C8I",
"name":"家安批发便利店",
"type":"购物服务;购物相关场所;购物相关场所",
"typecode":"060000",
"biz_type":"[]",
"address":"[]",
"location":"106.509170,29.715227",
"tel":"023-67303964;18908313784",
"distance":"[]",
"biz_ext":"[]",
"pname":"重庆市",
"cityname":"重庆市",
"adname":"北碚区",
"importance":"[]",
"shopid":"[]",
"shopinfo":"0",
"poiweight":"[]",
"parking_type":null,
"avg_price":null,
"avg_price_type":null
},
{
"id":"B0FFHQJJ3W",
"name":"平价副食",
"type":"购物服务;便民商店\/便利店;便民商店\/便利店",
"typecode":"060200",
"biz_type":"[]",
"address":"上海路与辽宁路交叉口北50米",
"location":"106.439236,29.832039",
"tel":"[]",
"distance":"[]",
"biz_ext":"[]",
"pname":"重庆市",
"cityname":"重庆市",
"adname":"北碚区",
"importance":"[]",
"shopid":"[]",
"shopinfo":"0",
"poiweight":"[]",
"parking_type":null,
"avg_price":null,
"avg_price_type":null
},
{
"id":"B0FFHQJJ7W",
"name":"重庆勿忘我商贸有限公司配送中心",
"type":"购物服务;便民商店\/便利店;便民商店\/便利店",
"typecode":"060200",
"biz_type":"[]",
"address":"北泉路299号附近",
"location":"106.422295,29.831848",
"tel":"[]",
"distance":"[]",
"biz_ext":"[]",
"pname":"重庆市",
"cityname":"重庆市",
"adname":"北碚区",
"importance":"[]",
"shopid":"[]",
"shopinfo":"0",
"poiweight":"[]",
"parking_type":null,
"avg_price":null,
"avg_price_type":null
},
{
"id":"B0FFHR74NY",
"name":"翔翔五金百货",
"type":"购物服务;超级市场;超市",
"typecode":"060400",
"biz_type":"[]",
"address":"水土九龙正街水月康居东",
"location":"106.500856,29.782414",
"tel":"15023224129",
"distance":"[]",
"biz_ext":"[]",
"pname":"重庆市",
"cityname":"重庆市",
"adname":"北碚区",
"importance":"[]",
"shopid":"[]",
"shopinfo":"0",
"poiweight":"[]",
"parking_type":null,
"avg_price":null,
"avg_price_type":null
},
{
"id":"B0FFHRJWS3",
"name":"聚优惠互联网便利店",
"type":"购物服务;购物相关场所;购物相关场所",
"typecode":"060000",
"biz_type":"[]",
"address":"同华路537号附近",
"location":"106.489930,29.730120",
"tel":"[]",
"distance":"[]",
"biz_ext":"[]",
"pname":"重庆市",
"cityname":"重庆市",
"adname":"北碚区",
"importance":"[]",
"shopid":"[]",
"shopinfo":"0",
"poiweight":"[]",
"parking_type":null,
"avg_price":null,
"avg_price_type":null
},
{
"id":"B0FFHSBNS6",
"name":"鑫鑫副食",
"type":"购物服务;便民商店\/便利店;便民商店\/便利店",
"typecode":"060200",
"biz_type":"[]",
"address":"歇马镇盐井坝453-1号",
"location":"106.378453,29.780027",
"tel":"[]",
"distance":"[]",
"biz_ext":"[]",
"pname":"重庆市",
"cityname":"重庆市",
"adname":"北碚区",
"importance":"[]",
"shopid":"[]",
"shopinfo":"0",
"poiweight":"[]",
"parking_type":null,
"avg_price":null,
"avg_price_type":null
}
]
}