{
"RECORDS":[
{
"id":"B00170CDLZ",
"name":"重百超市",
"type":"购物服务;超级市场;超市",
"typecode":"060400",
"biz_type":"[]",
"address":"天生街道天生新村63号重庆百货(北碚商场)B1层",
"location":"106.436275,29.826311",
"tel":"023-68215031",
"distance":"[]",
"biz_ext":"[]",
"pname":"重庆市",
"cityname":"重庆市",
"adname":"北碚区",
"importance":"[]",
"shopid":"[]",
"shopinfo":"0",
"poiweight":"[]",
"parking_type":null,
"avg_price":null,
"avg_price_type":null
},
{
"id":"B00170HVWB",
"name":"重百超市(北碚中山路店)",
"type":"购物服务;超级市场;超市",
"typecode":"060400",
"biz_type":"[]",
"address":"中山路66号(近天奇广场)",
"location":"106.438316,29.826383",
"tel":"023-68869757;023-68298417",
"distance":"[]",
"biz_ext":"[]",
"pname":"重庆市",
"cityname":"重庆市",
"adname":"北碚区",
"importance":"[]",
"shopid":"[]",
"shopinfo":"0",
"poiweight":"[]",
"parking_type":null,
"avg_price":null,
"avg_price_type":null
},
{
"id":"B001784UQS",
"name":"永辉超市(文星湾旺德旺城店)",
"type":"购物服务;超级市场;超市",
"typecode":"060400",
"biz_type":"[]",
"address":"文星湾113号旺德大厦B1层",
"location":"106.434341,29.830743",
"tel":"023-68210333",
"distance":"[]",
"biz_ext":"[]",
"pname":"重庆市",
"cityname":"重庆市",
"adname":"北碚区",
"importance":"[]",
"shopid":"[]",
"shopinfo":"0",
"poiweight":"[]",
"parking_type":null,
"avg_price":null,
"avg_price_type":null
},
{
"id":"B00178UJPM",
"name":"新世纪百货(碚峡路店)",
"type":"购物服务;商场;普通商场",
"typecode":"060102",
"biz_type":"[]",
"address":"碚峡路139号(近苏宁电器)",
"location":"106.441758,29.823869",
"tel":"023-89090221",
"distance":"[]",
"biz_ext":"[]",
"pname":"重庆市",
"cityname":"重庆市",
"adname":"北碚区",
"importance":"[]",
"shopid":"[]",
"shopinfo":"0",
"poiweight":"[]",
"parking_type":null,
"avg_price":null,
"avg_price_type":null
},
{
"id":"B00178UP0X",
"name":"永辉超市(北碚天生丽街店)",
"type":"购物服务;超级市场;超市",
"typecode":"060400",
"biz_type":"[]",
"address":"西南大学对面天生丽街",
"location":"106.422898,29.815153",
"tel":"023-68286333",
"distance":"[]",
"biz_ext":"[]",
"pname":"重庆市",
"cityname":"重庆市",
"adname":"北碚区",
"importance":"[]",
"shopid":"[]",
"shopinfo":"0",
"poiweight":"[]",
"parking_type":null,
"avg_price":null,
"avg_price_type":null
},
{
"id":"B00178UQBM",
"name":"新世纪百货北碚新城店(雄风义乌商贸城)",
"type":"购物服务;商场;普通商场|购物服务;超级市场;超市",
"typecode":"060102|060400",
"biz_type":"[]",
"address":"城南嘉陵风情步行街7号雄风义乌商贸城B1层",
"location":"106.399722,29.803228",
"tel":"023-89188933;023-89851035",
"distance":"[]",
"biz_ext":"[]",
"pname":"重庆市",
"cityname":"重庆市",
"adname":"北碚区",
"importance":"[]",
"shopid":"[]",
"shopinfo":"0",
"poiweight":"[]",
"parking_type":null,
"avg_price":null,
"avg_price_type":null
},
{
"id":"B001790V2B",
"name":"重百超市(北碚二店)",
"type":"购物服务;超级市场;超市",
"typecode":"060400",
"biz_type":"[]",
"address":"北碚云泉路6号",
"location":"106.438126,29.820833",
"tel":"023-68867991",
"distance":"[]",
"biz_ext":"[]",
"pname":"重庆市",
"cityname":"重庆市",
"adname":"北碚区",
"importance":"[]",
"shopid":"[]",
"shopinfo":"0",
"poiweight":"[]",
"parking_type":null,
"avg_price":null,
"avg_price_type":null
},
{
"id":"B0FFFSUD9M",
"name":"永辉超市(双元大道店)",
"type":"购物服务;超级市场;超市",
"typecode":"060400",
"biz_type":"[]",
"address":"双元大道25号国泽生活广场B1层",
"location":"106.396911,29.801309",
"tel":"023-68201933",
"distance":"[]",
"biz_ext":"[]",
"pname":"重庆市",
"cityname":"重庆市",
"adname":"北碚区",
"importance":"[]",
"shopid":"[]",
"shopinfo":"0",
"poiweight":"[]",
"parking_type":null,
"avg_price":null,
"avg_price_type":null
},
{
"id":"B0FFH22D42",
"name":"乐町(北碚重百商场店)",
"type":"购物服务;专卖店;专营店",
"typecode":"061200",
"biz_type":"[]",
"address":"嘉陵风情步行街雄风百货2楼",
"location":"106.401885,29.801420",
"tel":"023-68281408",
"distance":"[]",
"biz_ext":"[]",
"pname":"重庆市",
"cityname":"重庆市",
"adname":"北碚区",
"importance":"[]",
"shopid":"[]",
"shopinfo":"0",
"poiweight":"[]",
"parking_type":null,
"avg_price":null,
"avg_price_type":null
},
{
"id":"B0FFHMNOH4",
"name":"重百超市(歇马店)",
"type":"购物服务;超级市场;超市",
"typecode":"060400",
"biz_type":"[]",
"address":"歇马镇歇马路一户12号缙南商城AB栋B1楼",
"location":"106.371796,29.766617",
"tel":"023-68248318;023-68248338",
"distance":"[]",
"biz_ext":"[]",
"pname":"重庆市",
"cityname":"重庆市",
"adname":"北碚区",
"importance":"[]",
"shopid":"[]",
"shopinfo":"0",
"poiweight":"[]",
"parking_type":null,
"avg_price":null,
"avg_price_type":null
},
{
"id":"B0FFHS34MI",
"name":"永辉重庆北碚区(-双元大道店)",
"type":"购物服务;商场;商场",
"typecode":"060100",
"biz_type":"[]",
"address":"双元大道海宇中央鑫都",
"location":"106.396590,29.801499",
"tel":"023-68201933",
"distance":"[]",
"biz_ext":"[]",
"pname":"重庆市",
"cityname":"重庆市",
"adname":"北碚区",
"importance":"[]",
"shopid":"[]",
"shopinfo":"0",
"poiweight":"[]",
"parking_type":null,
"avg_price":null,
"avg_price_type":null
}
]
}