{
"RECORDS":[
{
"id":"B001709S8W",
"name":"新世纪百货(加州店)",
"type":"购物服务;超级市场;超市",
"typecode":"060400",
"biz_type":"[]",
"address":"龙华大道1889号",
"location":"106.520923,29.587072",
"tel":"023-89071003",
"distance":"[]",
"biz_ext":"[]",
"pname":"重庆市",
"cityname":"重庆市",
"adname":"渝北区",
"importance":"[]",
"shopid":"[]",
"shopinfo":"0",
"poiweight":"[]",
"parking_type":null,
"avg_price":null,
"avg_price_type":null
},
{
"id":"B00170C5QU",
"name":"永辉超市(东和春天店)",
"type":"购物服务;超级市场;超市",
"typecode":"060400",
"biz_type":"[]",
"address":"龙山路48号",
"location":"106.505792,29.590928",
"tel":"023-67579333",
"distance":"[]",
"biz_ext":"[]",
"pname":"重庆市",
"cityname":"重庆市",
"adname":"渝北区",
"importance":"[]",
"shopid":"[]",
"shopinfo":"0",
"poiweight":"[]",
"parking_type":null,
"avg_price":null,
"avg_price_type":null
},
{
"id":"B00170HWKE",
"name":"新世纪百货(双龙店)",
"type":"购物服务;超级市场;超市",
"typecode":"060400",
"biz_type":"[]",
"address":"双龙大道357号东坡广场B1层",
"location":"106.623658,29.701246",
"tel":"023-89183751",
"distance":"[]",
"biz_ext":"[]",
"pname":"重庆市",
"cityname":"重庆市",
"adname":"渝北区",
"importance":"[]",
"shopid":"[]",
"shopinfo":"0",
"poiweight":"[]",
"parking_type":null,
"avg_price":null,
"avg_price_type":null
},
{
"id":"B00170HXG1",
"name":"重百超市(回兴店)",
"type":"购物服务;超级市场;超市",
"typecode":"060400",
"biz_type":"[]",
"address":"宝桐路1号附10号",
"location":"106.608062,29.679510",
"tel":"023-67378998",
"distance":"[]",
"biz_ext":"[]",
"pname":"重庆市",
"cityname":"重庆市",
"adname":"渝北区",
"importance":"[]",
"shopid":"[]",
"shopinfo":"0",
"poiweight":"[]",
"parking_type":null,
"avg_price":null,
"avg_price_type":null
},
{
"id":"B00170IGC4",
"name":"卜蜂莲花(龙湖店)",
"type":"购物服务;超级市场;卜蜂莲花",
"typecode":"060409",
"biz_type":"[]",
"address":"新南路36号",
"location":"106.513136,29.601091",
"tel":"023-88756508;023-67507778",
"distance":"[]",
"biz_ext":"[]",
"pname":"重庆市",
"cityname":"重庆市",
"adname":"渝北区",
"importance":"[]",
"shopid":"[]",
"shopinfo":"0",
"poiweight":"[]",
"parking_type":null,
"avg_price":null,
"avg_price_type":null
},
{
"id":"B00170KX54",
"name":"永辉超市(黄泥塝店)",
"type":"购物服务;超级市场;超市",
"typecode":"060400",
"biz_type":"[]",
"address":"黄龙路10号",
"location":"106.538590,29.588751",
"tel":"023-67530977;023-67531619",
"distance":"[]",
"biz_ext":"[]",
"pname":"重庆市",
"cityname":"重庆市",
"adname":"渝北区",
"importance":"[]",
"shopid":"[]",
"shopinfo":"0",
"poiweight":"[]",
"parking_type":null,
"avg_price":null,
"avg_price_type":null
},
{
"id":"B00170KX55",
"name":"永辉超市(加州店)",
"type":"购物服务;超级市场;超市",
"typecode":"060400",
"biz_type":"[]",
"address":"嘉州路83号加州花园B4幢",
"location":"106.520795,29.591518",
"tel":"023-67516808",
"distance":"[]",
"biz_ext":"[]",
"pname":"重庆市",
"cityname":"重庆市",
"adname":"渝北区",
"importance":"[]",
"shopid":"[]",
"shopinfo":"0",
"poiweight":"[]",
"parking_type":null,
"avg_price":null,
"avg_price_type":null
},
{
"id":"B00170KX58",
"name":"永辉超市(双龙店)",
"type":"购物服务;超级市场;超市",
"typecode":"060400",
"biz_type":"[]",
"address":"双龙大道218号",
"location":"106.624897,29.706294",
"tel":"023-67171333;023-67376898",
"distance":"[]",
"biz_ext":"[]",
"pname":"重庆市",
"cityname":"重庆市",
"adname":"渝北区",
"importance":"[]",
"shopid":"[]",
"shopinfo":"0",
"poiweight":"[]",
"parking_type":null,
"avg_price":null,
"avg_price_type":null
},
{
"id":"B00170KYYU",
"name":"新世纪百货(长安丽都店)",
"type":"购物服务;超级市场;超市",
"typecode":"060400",
"biz_type":"[]",
"address":"洋河东路1附1号",
"location":"106.546653,29.584043",
"tel":"023-89118089",
"distance":"[]",
"biz_ext":"[]",
"pname":"重庆市",
"cityname":"重庆市",
"adname":"渝北区",
"importance":"[]",
"shopid":"[]",
"shopinfo":"0",
"poiweight":"[]",
"parking_type":null,
"avg_price":null,
"avg_price_type":null
},
{
"id":"B001783770",
"name":"重百超市(渝北店)",
"type":"购物服务;超级市场;超市",
"typecode":"060400",
"biz_type":"[]",
"address":"义学路2号附30号",
"location":"106.630691,29.717416",
"tel":"023-67219848",
"distance":"[]",
"biz_ext":"[]",
"pname":"重庆市",
"cityname":"重庆市",
"adname":"渝北区",
"importance":"[]",
"shopid":"[]",
"shopinfo":"0",
"poiweight":"[]",
"parking_type":null,
"avg_price":null,
"avg_price_type":null
},
{
"id":"B001784VCP",
"name":"重百超市(南苑店)",
"type":"购物服务;超级市场;超市",
"typecode":"060400",
"biz_type":"[]",
"address":"红锦大道557号负一楼",
"location":"106.518714,29.604476",
"tel":"023-67533570",
"distance":"[]",
"biz_ext":"[]",
"pname":"重庆市",
"cityname":"重庆市",
"adname":"渝北区",
"importance":"[]",
"shopid":"[]",
"shopinfo":"0",
"poiweight":"[]",
"parking_type":null,
"avg_price":null,
"avg_price_type":null
},
{
"id":"B001785FZR",
"name":"永辉超市(龙头寺店)",
"type":"购物服务;超级市场;超市",
"typecode":"060400",
"biz_type":"[]",
"address":"树兰路151号保利香槟花园C区B1层",
"location":"106.549460,29.600770",
"tel":"023-63200333",
"distance":"[]",
"biz_ext":"[]",
"pname":"重庆市",
"cityname":"重庆市",
"adname":"渝北区",
"importance":"[]",
"shopid":"[]",
"shopinfo":"0",
"poiweight":"[]",
"parking_type":null,
"avg_price":null,
"avg_price_type":null
},
{
"id":"B001786LSQ",
"name":"重百超市(空港店)",
"type":"购物服务;超级市场;超市",
"typecode":"060400",
"biz_type":"[]",
"address":"双凤桥空港大道333号",
"location":"106.637146,29.739817",
"tel":"023-67187212",
"distance":"[]",
"biz_ext":"[]",
"pname":"重庆市",
"cityname":"重庆市",
"adname":"渝北区",
"importance":"[]",
"shopid":"[]",
"shopinfo":"0",
"poiweight":"[]",
"parking_type":null,
"avg_price":null,
"avg_price_type":null
},
{
"id":"B001786LZJ",
"name":"永辉超市(宝圣西路店)",
"type":"购物服务;超级市场;超市",
"typecode":"060400",
"biz_type":"[]",
"address":"宝圣西路395号",
"location":"106.605484,29.687410",
"tel":"023-67348333",
"distance":"[]",
"biz_ext":"[]",
"pname":"重庆市",
"cityname":"重庆市",
"adname":"渝北区",
"importance":"[]",
"shopid":"[]",
"shopinfo":"0",
"poiweight":"[]",
"parking_type":null,
"avg_price":null,
"avg_price_type":null
},
{
"id":"B001786M4H",
"name":"新世纪百货(兴科四路店)",
"type":"购物服务;超级市场;超市",
"typecode":"060400",
"biz_type":"[]",
"address":"回兴街道兴科四路60号",
"location":"106.596439,29.681052",
"tel":"023-89119532",
"distance":"[]",
"biz_ext":"[]",
"pname":"重庆市",
"cityname":"重庆市",
"adname":"渝北区",
"importance":"[]",
"shopid":"[]",
"shopinfo":"0",
"poiweight":"[]",
"parking_type":null,
"avg_price":null,
"avg_price_type":null
},
{
"id":"B001786MQ6",
"name":"沃尔玛(冉家坝店)",
"type":"购物服务;超级市场;沃尔玛",
"typecode":"060402",
"biz_type":"[]",
"address":"龙山大道111号",
"location":"106.497718,29.582904",
"tel":"023-67792276;023-67792277",
"distance":"[]",
"biz_ext":"[]",
"pname":"重庆市",
"cityname":"重庆市",
"adname":"渝北区",
"importance":"[]",
"shopid":"[]",
"shopinfo":"0",
"poiweight":"[]",
"parking_type":null,
"avg_price":null,
"avg_price_type":null
},
{
"id":"B001786N2R",
"name":"重百超市(人和店)",
"type":"购物服务;超级市场;超市",
"typecode":"060400",
"biz_type":"[]",
"address":"人和大道42号附58号",
"location":"106.526976,29.618408",
"tel":"023-67649051",
"distance":"[]",
"biz_ext":"[]",
"pname":"重庆市",
"cityname":"重庆市",
"adname":"渝北区",
"importance":"[]",
"shopid":"[]",
"shopinfo":"0",
"poiweight":"[]",
"parking_type":null,
"avg_price":null,
"avg_price_type":null
},
{
"id":"B001786NML",
"name":"重百超市(新城丽园店)",
"type":"购物服务;超级市场;超市",
"typecode":"060400",
"biz_type":"[]",
"address":"龙塔街道紫薇路181号",
"location":"106.533859,29.595489",
"tel":"023-86851967",
"distance":"[]",
"biz_ext":"[]",
"pname":"重庆市",
"cityname":"重庆市",
"adname":"渝北区",
"importance":"[]",
"shopid":"[]",
"shopinfo":"0",
"poiweight":"[]",
"parking_type":null,
"avg_price":null,
"avg_price_type":null
},
{
"id":"B001786O67",
"name":"重百超市(康园路店)",
"type":"购物服务;便民商店\/便利店;便民商店\/便利店",
"typecode":"060200",
"biz_type":"[]",
"address":"康园路149号",
"location":"106.529304,29.604196",
"tel":"023-67716865",
"distance":"[]",
"biz_ext":"[]",
"pname":"重庆市",
"cityname":"重庆市",
"adname":"渝北区",
"importance":"[]",
"shopid":"[]",
"shopinfo":"0",
"poiweight":"[]",
"parking_type":null,
"avg_price":null,
"avg_price_type":null
},
{
"id":"B001786ODB",
"name":"新世纪百货(黄泥塝店)",
"type":"购物服务;超级市场;超市",
"typecode":"060400",
"biz_type":"[]",
"address":"龙溪街道红黄路355号皇冠自由城E幢-1-1号",
"location":"106.537127,29.588911",
"tel":"023-89076545;023-89188555",
"distance":"[]",
"biz_ext":"[]",
"pname":"重庆市",
"cityname":"重庆市",
"adname":"渝北区",
"importance":"[]",
"shopid":"[]",
"shopinfo":"0",
"poiweight":"[]",
"parking_type":null,
"avg_price":null,
"avg_price_type":null
},
{
"id":"B0017877J9",
"name":"永辉超市(武陵路店)",
"type":"购物服务;超级市场;超市",
"typecode":"060400",
"biz_type":"[]",
"address":"武陵路71号",
"location":"106.513932,29.586176",
"tel":"023-67901333",
"distance":"[]",
"biz_ext":"[]",
"pname":"重庆市",
"cityname":"重庆市",
"adname":"渝北区",
"importance":"[]",
"shopid":"[]",
"shopinfo":"0",
"poiweight":"[]",
"parking_type":null,
"avg_price":null,
"avg_price_type":null
},
{
"id":"B0017877LX",
"name":"新世纪百货(渝北店)",
"type":"购物服务;超级市场;超市",
"typecode":"060400",
"biz_type":"[]",
"address":"渝航路33号重庆都市商场B1层",
"location":"106.626623,29.719685",
"tel":"023-67800055;023-89183771",
"distance":"[]",
"biz_ext":"[]",
"pname":"重庆市",
"cityname":"重庆市",
"adname":"渝北区",
"importance":"[]",
"shopid":"[]",
"shopinfo":"0",
"poiweight":"[]",
"parking_type":null,
"avg_price":null,
"avg_price_type":null
},
{
"id":"B00178TYLM",
"name":"重百超市(黄泥塝店)",
"type":"购物服务;超级市场;超市",
"typecode":"060400",
"biz_type":"[]",
"address":"洋河北路79号",
"location":"106.541302,29.585127",
"tel":"[]",
"distance":"[]",
"biz_ext":"[]",
"pname":"重庆市",
"cityname":"重庆市",
"adname":"渝北区",
"importance":"[]",
"shopid":"[]",
"shopinfo":"0",
"poiweight":"[]",
"parking_type":null,
"avg_price":null,
"avg_price_type":null
},
{
"id":"B00178UDQN",
"name":"重百超市(鲁能·星城店)",
"type":"购物服务;超级市场;超市",
"typecode":"060400",
"biz_type":"[]",
"address":"渝鲁大道666号鲁能新城",
"location":"106.560522,29.595474",
"tel":"023-67980846",
"distance":"[]",
"biz_ext":"[]",
"pname":"重庆市",
"cityname":"重庆市",
"adname":"渝北区",
"importance":"[]",
"shopid":"[]",
"shopinfo":"0",
"poiweight":"[]",
"parking_type":null,
"avg_price":null,
"avg_price_type":null
},
{
"id":"B00178UFW1",
"name":"中百仓储(宝圣二店)",
"type":"购物服务;超级市场;超市",
"typecode":"060400",
"biz_type":"[]",
"address":"宝圣大道万科朗润园",
"location":"106.593479,29.657450",
"tel":"023-67131811",
"distance":"[]",
"biz_ext":"[]",
"pname":"重庆市",
"cityname":"重庆市",
"adname":"渝北区",
"importance":"[]",
"shopid":"[]",
"shopinfo":"0",
"poiweight":"[]",
"parking_type":null,
"avg_price":null,
"avg_price_type":null
},
{
"id":"B00178UH2N",
"name":"永辉超市(金开大道店)",
"type":"购物服务;超级市场;超市",
"typecode":"060400",
"biz_type":"[]",
"address":"金开大道1120号",
"location":"106.560539,29.660277",
"tel":"023-63012299",
"distance":"[]",
"biz_ext":"[]",
"pname":"重庆市",
"cityname":"重庆市",
"adname":"渝北区",
"importance":"[]",
"shopid":"[]",
"shopinfo":"0",
"poiweight":"[]",
"parking_type":null,
"avg_price":null,
"avg_price_type":null
},
{
"id":"B00178UH39",
"name":"新世纪百货(龙华大道店)",
"type":"购物服务;商场;普通商场",
"typecode":"060102",
"biz_type":"[]",
"address":"金龙路261号财信·城市国际10栋B1层",
"location":"106.517875,29.590734",
"tel":"023-88280400",
"distance":"[]",
"biz_ext":"[]",
"pname":"重庆市",
"cityname":"重庆市",
"adname":"渝北区",
"importance":"[]",
"shopid":"[]",
"shopinfo":"0",
"poiweight":"[]",
"parking_type":null,
"avg_price":null,
"avg_price_type":null
},
{
"id":"B00178UKC2",
"name":"中百仓储超市(宝圣路店)",
"type":"购物服务;超级市场;超市",
"typecode":"060400",
"biz_type":"[]",
"address":"宝圣大道950号附17号附近",
"location":"106.598495,29.669982",
"tel":"023-67192225",
"distance":"[]",
"biz_ext":"[]",
"pname":"重庆市",
"cityname":"重庆市",
"adname":"渝北区",
"importance":"[]",
"shopid":"[]",
"shopinfo":"0",
"poiweight":"[]",
"parking_type":null,
"avg_price":null,
"avg_price_type":null
},
{
"id":"B00178UKZ6",
"name":"新世纪超市(新牌坊店)",
"type":"购物服务;超级市场;超市",
"typecode":"060400",
"biz_type":"[]",
"address":"新牌坊二路元喜商务酒店旁",
"location":"106.511095,29.597775",
"tel":"023-89077320",
"distance":"[]",
"biz_ext":"[]",
"pname":"重庆市",
"cityname":"重庆市",
"adname":"渝北区",
"importance":"[]",
"shopid":"[]",
"shopinfo":"0",
"poiweight":"[]",
"parking_type":null,
"avg_price":null,
"avg_price_type":null
},
{
"id":"B00178X4US",
"name":"永辉超市(星湖路店)",
"type":"购物服务;超级市场;超市",
"typecode":"060400",
"biz_type":"[]",
"address":"星湖路3号",
"location":"106.496560,29.603003",
"tel":"023-63065333",
"distance":"[]",
"biz_ext":"[]",
"pname":"重庆市",
"cityname":"重庆市",
"adname":"渝北区",
"importance":"[]",
"shopid":"[]",
"shopinfo":"0",
"poiweight":"[]",
"parking_type":null,
"avg_price":null,
"avg_price_type":null
},
{
"id":"B00178X5QC",
"name":"新世纪百货(空港店)",
"type":"购物服务;超级市场;超市",
"typecode":"060400",
"biz_type":"[]",
"address":"港汇路99号附45号",
"location":"106.632761,29.733781",
"tel":"023-89183757",
"distance":"[]",
"biz_ext":"[]",
"pname":"重庆市",
"cityname":"重庆市",
"adname":"渝北区",
"importance":"[]",
"shopid":"[]",
"shopinfo":"0",
"poiweight":"[]",
"parking_type":null,
"avg_price":null,
"avg_price_type":null
},
{
"id":"B00178X8P0",
"name":"永辉超市(空港店)",
"type":"购物服务;超级市场;超市",
"typecode":"060400",
"biz_type":"[]",
"address":"桃源大道247号红树林小区28栋1层",
"location":"106.629400,29.736300",
"tel":"023-67139166;023-67212333",
"distance":"[]",
"biz_ext":"[]",
"pname":"重庆市",
"cityname":"重庆市",
"adname":"渝北区",
"importance":"[]",
"shopid":"[]",
"shopinfo":"0",
"poiweight":"[]",
"parking_type":null,
"avg_price":null,
"avg_price_type":null
},
{
"id":"B00178XEYQ",
"name":"重百超市(蓝调天街店)",
"type":"购物服务;超级市场;超市",
"typecode":"060400",
"biz_type":"[]",
"address":"龙宁路28号",
"location":"106.554532,29.651120",
"tel":"023-63055896",
"distance":"[]",
"biz_ext":"[]",
"pname":"重庆市",
"cityname":"重庆市",
"adname":"渝北区",
"importance":"[]",
"shopid":"[]",
"shopinfo":"0",
"poiweight":"[]",
"parking_type":null,
"avg_price":null,
"avg_price_type":null
},
{
"id":"B00178XUIO",
"name":"新世纪百货(人和店)",
"type":"购物服务;商场;普通商场",
"typecode":"060102",
"biz_type":"[]",
"address":"龙寿路609号",
"location":"106.532821,29.622701",
"tel":"023-89111171",
"distance":"[]",
"biz_ext":"[]",
"pname":"重庆市",
"cityname":"重庆市",
"adname":"渝北区",
"importance":"[]",
"shopid":"[]",
"shopinfo":"0",
"poiweight":"[]",
"parking_type":null,
"avg_price":null,
"avg_price_type":null
},
{
"id":"B00178YS6N",
"name":"新世纪百货(金渝大道店)",
"type":"购物服务;超级市场;超市",
"typecode":"060400",
"biz_type":"[]",
"address":"[]",
"location":"106.568954,29.640781",
"tel":"023-89136198",
"distance":"[]",
"biz_ext":"[]",
"pname":"重庆市",
"cityname":"重庆市",
"adname":"渝北区",
"importance":"[]",
"shopid":"[]",
"shopinfo":"0",
"poiweight":"[]",
"parking_type":null,
"avg_price":null,
"avg_price_type":null
},
{
"id":"B00178YTR3",
"name":"新世纪百货(民心佳园店)",
"type":"购物服务;超级市场;超市",
"typecode":"060400",
"biz_type":"[]",
"address":"民心路513号附29号",
"location":"106.561786,29.624438",
"tel":"18623321631",
"distance":"[]",
"biz_ext":"[]",
"pname":"重庆市",
"cityname":"重庆市",
"adname":"渝北区",
"importance":"[]",
"shopid":"[]",
"shopinfo":"0",
"poiweight":"[]",
"parking_type":null,
"avg_price":null,
"avg_price_type":null
},
{
"id":"B0017902KJ",
"name":"新世纪百货(龙头寺店)",
"type":"购物服务;超级市场;超市",
"typecode":"060400",
"biz_type":"[]",
"address":"宝华大道16号",
"location":"106.551237,29.599891",
"tel":"023-88910276",
"distance":"[]",
"biz_ext":"[]",
"pname":"重庆市",
"cityname":"重庆市",
"adname":"渝北区",
"importance":"[]",
"shopid":"[]",
"shopinfo":"0",
"poiweight":"[]",
"parking_type":null,
"avg_price":null,
"avg_price_type":null
},
{
"id":"B001790NXG",
"name":"永辉超市(星光天地店)",
"type":"购物服务;超级市场;超市",
"typecode":"060400",
"biz_type":"[]",
"address":"金开大道70号协信中心星光天地B1层",
"location":"106.533983,29.628298",
"tel":"023-63081333",
"distance":"[]",
"biz_ext":"[]",
"pname":"重庆市",
"cityname":"重庆市",
"adname":"渝北区",
"importance":"[]",
"shopid":"[]",
"shopinfo":"0",
"poiweight":"[]",
"parking_type":null,
"avg_price":null,
"avg_price_type":null
},
{
"id":"B001790SZK",
"name":"永辉超市(金渝大道店)",
"type":"购物服务;超级市场;超市",
"typecode":"060400",
"biz_type":"[]",
"address":"金渝大道88号叠彩城三期B1层",
"location":"106.569128,29.640251",
"tel":"023-63072266",
"distance":"[]",
"biz_ext":"[]",
"pname":"重庆市",
"cityname":"重庆市",
"adname":"渝北区",
"importance":"[]",
"shopid":"[]",
"shopinfo":"0",
"poiweight":"[]",
"parking_type":null,
"avg_price":null,
"avg_price_type":null
},
{
"id":"B001792W22",
"name":"永辉超市(兴科大道店)",
"type":"购物服务;超级市场;超市",
"typecode":"060400",
"biz_type":"[]",
"address":"兴科大道422号",
"location":"106.598580,29.686447",
"tel":"023-67831333",
"distance":"[]",
"biz_ext":"[]",
"pname":"重庆市",
"cityname":"重庆市",
"adname":"渝北区",
"importance":"[]",
"shopid":"[]",
"shopinfo":"0",
"poiweight":"[]",
"parking_type":null,
"avg_price":null,
"avg_price_type":null
},
{
"id":"B001797BNJ",
"name":"沃尔玛购物广场冉家坝分店(北入口)",
"type":"购物服务;购物相关场所;购物相关场所",
"typecode":"060000",
"biz_type":"[]",
"address":"松石大道与龙山大道交叉口西北100米",
"location":"106.497776,29.582830",
"tel":"[]",
"distance":"[]",
"biz_ext":"[]",
"pname":"重庆市",
"cityname":"重庆市",
"adname":"渝北区",
"importance":"[]",
"shopid":"[]",
"shopinfo":"0",
"poiweight":"[]",
"parking_type":null,
"avg_price":null,
"avg_price_type":null
},
{
"id":"B0017982RE",
"name":"星期六(重百渝北商场店)",
"type":"购物服务;专卖店;专营店",
"typecode":"061200",
"biz_type":"[]",
"address":"胜利路194号金港国际购物中心F4",
"location":"106.631227,29.716549",
"tel":"023-67806251",
"distance":"[]",
"biz_ext":"[]",
"pname":"重庆市",
"cityname":"重庆市",
"adname":"渝北区",
"importance":"[]",
"shopid":"[]",
"shopinfo":"0",
"poiweight":"[]",
"parking_type":null,
"avg_price":null,
"avg_price_type":null
},
{
"id":"B00179AV3X",
"name":"永辉超市(红叶路店)",
"type":"购物服务;超级市场;超市",
"typecode":"060400",
"biz_type":"[]",
"address":"红叶路27号润都7号B1层",
"location":"106.527281,29.604107",
"tel":"023-67017733",
"distance":"[]",
"biz_ext":"[]",
"pname":"重庆市",
"cityname":"重庆市",
"adname":"渝北区",
"importance":"[]",
"shopid":"[]",
"shopinfo":"0",
"poiweight":"[]",
"parking_type":null,
"avg_price":null,
"avg_price_type":null
},
{
"id":"B00179AVCT",
"name":"永辉超市(兰馨大道店)",
"type":"购物服务;超级市场;超市",
"typecode":"060400",
"biz_type":"[]",
"address":"兰馨大道77号(新城广场对面)",
"location":"106.607543,29.705903",
"tel":"023-67175333",
"distance":"[]",
"biz_ext":"[]",
"pname":"重庆市",
"cityname":"重庆市",
"adname":"渝北区",
"importance":"[]",
"shopid":"[]",
"shopinfo":"0",
"poiweight":"[]",
"parking_type":null,
"avg_price":null,
"avg_price_type":null
},
{
"id":"B0FFF03A1H",
"name":"华润万家(SM城市广场店)",
"type":"购物服务;超级市场;华润",
"typecode":"060403",
"biz_type":"[]",
"address":"松石大道148号SM城市广场LG层",
"location":"106.495076,29.582846",
"tel":"023-61870618",
"distance":"[]",
"biz_ext":"[]",
"pname":"重庆市",
"cityname":"重庆市",
"adname":"渝北区",
"importance":"[]",
"shopid":"[]",
"shopinfo":"0",
"poiweight":"[]",
"parking_type":null,
"avg_price":null,
"avg_price_type":null
},
{
"id":"B0FFF2GU6Y",
"name":"永辉超市星光天地店(南入口)",
"type":"购物服务;购物相关场所;购物相关场所",
"typecode":"060000",
"biz_type":"[]",
"address":"和睦路72号附近",
"location":"106.534510,29.627557",
"tel":"023-63081333",
"distance":"[]",
"biz_ext":"[]",
"pname":"重庆市",
"cityname":"重庆市",
"adname":"渝北区",
"importance":"[]",
"shopid":"[]",
"shopinfo":"0",
"poiweight":"[]",
"parking_type":null,
"avg_price":null,
"avg_price_type":null
},
{
"id":"B0FFF3AW0J",
"name":"麦德龙(重庆北部新区商场)",
"type":"购物服务;超级市场;麦德龙",
"typecode":"060406",
"biz_type":"[]",
"address":"北部新区天福路63号",
"location":"106.552138,29.618828",
"tel":"023-88739888",
"distance":"[]",
"biz_ext":"[]",
"pname":"重庆市",
"cityname":"重庆市",
"adname":"渝北区",
"importance":"[]",
"shopid":"[]",
"shopinfo":"0",
"poiweight":"[]",
"parking_type":null,
"avg_price":null,
"avg_price_type":null
},
{
"id":"B0FFF3P6ME",
"name":"新世纪百货(康庄美地店)",
"type":"购物服务;商场;普通商场",
"typecode":"060102",
"biz_type":"[]",
"address":"金通大道506号附1号",
"location":"106.480993,29.632915",
"tel":"023-88733226",
"distance":"[]",
"biz_ext":"[]",
"pname":"重庆市",
"cityname":"重庆市",
"adname":"渝北区",
"importance":"[]",
"shopid":"[]",
"shopinfo":"0",
"poiweight":"[]",
"parking_type":null,
"avg_price":null,
"avg_price_type":null
},
{
"id":"B0FFF472ME",
"name":"新世纪百货(新溉路店)",
"type":"购物服务;超级市场;超市",
"typecode":"060400",
"biz_type":"[]",
"address":"龙溪街道新溉大道18号国宾城1幢B1层",
"location":"106.527465,29.598722",
"tel":"023-88733507",
"distance":"[]",
"biz_ext":"[]",
"pname":"重庆市",
"cityname":"重庆市",
"adname":"渝北区",
"importance":"[]",
"shopid":"[]",
"shopinfo":"0",
"poiweight":"[]",
"parking_type":null,
"avg_price":null,
"avg_price_type":null
},
{
"id":"B0FFF9RH16",
"name":"重百超市(长安大道店)",
"type":"购物服务;超级市场;超市",
"typecode":"060400",
"biz_type":"[]",
"address":"洋河北路12号(长安大道)",
"location":"106.543260,29.584630",
"tel":"023-67855228",
"distance":"[]",
"biz_ext":"[]",
"pname":"重庆市",
"cityname":"重庆市",
"adname":"渝北区",
"importance":"[]",
"shopid":"[]",
"shopinfo":"0",
"poiweight":"[]",
"parking_type":null,
"avg_price":null,
"avg_price_type":null
},
{
"id":"B0FFFDYYZE",
"name":"新世纪百货民心佳园店(东入口)",
"type":"购物服务;便民商店\/便利店;便民商店\/便利店",
"typecode":"060200",
"biz_type":"[]",
"address":"民心路513号附17号",
"location":"106.563110,29.625080",
"tel":"[]",
"distance":"[]",
"biz_ext":"[]",
"pname":"重庆市",
"cityname":"重庆市",
"adname":"渝北区",
"importance":"[]",
"shopid":"[]",
"shopinfo":"0",
"poiweight":"[]",
"parking_type":null,
"avg_price":null,
"avg_price_type":null
},
{
"id":"B0FFFE9YXQ",
"name":"新世纪百货康庄美地店a5号(出入口)",
"type":"购物服务;商场;普通商场",
"typecode":"060102",
"biz_type":"[]",
"address":"金通大道附近",
"location":"106.478960,29.633498",
"tel":"[]",
"distance":"[]",
"biz_ext":"[]",
"pname":"重庆市",
"cityname":"重庆市",
"adname":"渝北区",
"importance":"[]",
"shopid":"[]",
"shopinfo":"0",
"poiweight":"[]",
"parking_type":null,
"avg_price":null,
"avg_price_type":null
},
{
"id":"B0FFFEKR3F",
"name":"永辉超市(泰山大道店)",
"type":"购物服务;超级市场;超市",
"typecode":"060400",
"biz_type":"[]",
"address":"泰山大道东段62号动力国际广场B1层",
"location":"106.553157,29.603109",
"tel":"[]",
"distance":"[]",
"biz_ext":"[]",
"pname":"重庆市",
"cityname":"重庆市",
"adname":"渝北区",
"importance":"[]",
"shopid":"[]",
"shopinfo":"0",
"poiweight":"[]",
"parking_type":null,
"avg_price":null,
"avg_price_type":null
},
{
"id":"B0FFFF77AI",
"name":"新世纪百货康庄美地店(出入口B2号)",
"type":"购物服务;超级市场;超市|购物服务;商场;商场",
"typecode":"060400|060100",
"biz_type":"[]",
"address":"金通大道506-附1号附近",
"location":"106.479540,29.633010",
"tel":"[]",
"distance":"[]",
"biz_ext":"[]",
"pname":"重庆市",
"cityname":"重庆市",
"adname":"渝北区",
"importance":"[]",
"shopid":"[]",
"shopinfo":"0",
"poiweight":"[]",
"parking_type":null,
"avg_price":null,
"avg_price_type":null
},
{
"id":"B0FFFFK9VH",
"name":"新世纪百货康庄美地店A4号(出入口)",
"type":"购物服务;商场;购物中心",
"typecode":"060101",
"biz_type":"[]",
"address":"金通大道506号附1号",
"location":"106.480400,29.633118",
"tel":"[]",
"distance":"[]",
"biz_ext":"[]",
"pname":"重庆市",
"cityname":"重庆市",
"adname":"渝北区",
"importance":"[]",
"shopid":"[]",
"shopinfo":"0",
"poiweight":"[]",
"parking_type":null,
"avg_price":null,
"avg_price_type":null
},
{
"id":"B0FFFPM6V6",
"name":"重百超市(龙湖江与城店)",
"type":"购物服务;超级市场;超市",
"typecode":"060400",
"biz_type":"[]",
"address":"天山大道西段30号C区商业附1层1号",
"location":"106.470086,29.621035",
"tel":"023-67685525",
"distance":"[]",
"biz_ext":"[]",
"pname":"重庆市",
"cityname":"重庆市",
"adname":"渝北区",
"importance":"[]",
"shopid":"[]",
"shopinfo":"0",
"poiweight":"[]",
"parking_type":null,
"avg_price":null,
"avg_price_type":null
},
{
"id":"B0FFFSG5L9",
"name":"重百超市(水晶郦城店)",
"type":"购物服务;超级市场;超市",
"typecode":"060400",
"biz_type":"[]",
"address":"新南路162号龙湖水晶郦城内",
"location":"106.502746,29.601900",
"tel":"023-67038413",
"distance":"[]",
"biz_ext":"[]",
"pname":"重庆市",
"cityname":"重庆市",
"adname":"渝北区",
"importance":"[]",
"shopid":"[]",
"shopinfo":"0",
"poiweight":"[]",
"parking_type":null,
"avg_price":null,
"avg_price_type":null
},
{
"id":"B0FFFTM4YI",
"name":"新世纪百货(西门)(龙华大道店)",
"type":"购物服务;超级市场;超市",
"typecode":"060400",
"biz_type":"[]",
"address":"龙华大道107-附21号附近",
"location":"106.516640,29.590944",
"tel":"[]",
"distance":"[]",
"biz_ext":"[]",
"pname":"重庆市",
"cityname":"重庆市",
"adname":"渝北区",
"importance":"[]",
"shopid":"[]",
"shopinfo":"0",
"poiweight":"[]",
"parking_type":null,
"avg_price":null,
"avg_price_type":null
},
{
"id":"B0FFGAJY7F",
"name":"人人乐(洋河北路)",
"type":"购物服务;超级市场;超市",
"typecode":"060400",
"biz_type":"[]",
"address":"洋河北路19号",
"location":"106.538781,29.588020",
"tel":"023-86812525;023-86812758",
"distance":"[]",
"biz_ext":"[]",
"pname":"重庆市",
"cityname":"重庆市",
"adname":"渝北区",
"importance":"[]",
"shopid":"[]",
"shopinfo":"0",
"poiweight":"[]",
"parking_type":null,
"avg_price":null,
"avg_price_type":null
},
{
"id":"B0FFGBPDJ2",
"name":"永辉超市客服中心",
"type":"购物服务;购物相关场所;购物相关场所",
"typecode":"060000",
"biz_type":"[]",
"address":"红叶路29号",
"location":"106.527143,29.603804",
"tel":"[]",
"distance":"[]",
"biz_ext":"[]",
"pname":"重庆市",
"cityname":"重庆市",
"adname":"渝北区",
"importance":"[]",
"shopid":"[]",
"shopinfo":"0",
"poiweight":"[]",
"parking_type":null,
"avg_price":null,
"avg_price_type":null
},
{
"id":"B0FFGDPYAK",
"name":"永辉超市(水木天地店)",
"type":"购物服务;超级市场;超市",
"typecode":"060400",
"biz_type":"[]",
"address":"双湖路1号水木天地都会广场B1层",
"location":"106.617614,29.697067",
"tel":"[]",
"distance":"[]",
"biz_ext":"[]",
"pname":"重庆市",
"cityname":"重庆市",
"adname":"渝北区",
"importance":"[]",
"shopid":"[]",
"shopinfo":"0",
"poiweight":"[]",
"parking_type":null,
"avg_price":null,
"avg_price_type":null
},
{
"id":"B0FFGHKOW7",
"name":"永辉-渝北区泰山大道店",
"type":"购物服务;购物相关场所;购物相关场所",
"typecode":"060000",
"biz_type":"[]",
"address":"北部新区泰山大道东段62号动力时光购物中心",
"location":"106.553697,29.603271",
"tel":"[]",
"distance":"[]",
"biz_ext":"[]",
"pname":"重庆市",
"cityname":"重庆市",
"adname":"渝北区",
"importance":"[]",
"shopid":"[]",
"shopinfo":"0",
"poiweight":"[]",
"parking_type":null,
"avg_price":null,
"avg_price_type":null
},
{
"id":"B0FFGHKPK9",
"name":"永辉重庆渝北区(-东和春天店)",
"type":"购物服务;商场;商场",
"typecode":"060100",
"biz_type":"[]",
"address":"松石北路东和春天",
"location":"106.504837,29.592197",
"tel":"023-67579333",
"distance":"[]",
"biz_ext":"[]",
"pname":"重庆市",
"cityname":"重庆市",
"adname":"渝北区",
"importance":"[]",
"shopid":"[]",
"shopinfo":"0",
"poiweight":"[]",
"parking_type":null,
"avg_price":null,
"avg_price_type":null
},
{
"id":"B0FFGJ2LC6",
"name":"人人乐(鲁能星城店)",
"type":"购物服务;超级市场;超市",
"typecode":"060400",
"biz_type":"[]",
"address":"尚品路777号",
"location":"106.553292,29.592791",
"tel":"13500327501",
"distance":"[]",
"biz_ext":"[]",
"pname":"重庆市",
"cityname":"重庆市",
"adname":"渝北区",
"importance":"[]",
"shopid":"[]",
"shopinfo":"0",
"poiweight":"[]",
"parking_type":null,
"avg_price":null,
"avg_price_type":null
},
{
"id":"B0FFGPOS62",
"name":"沃尔玛(重庆两路金港国际店)",
"type":"购物服务;超级市场;沃尔玛",
"typecode":"060402",
"biz_type":"[]",
"address":"滨港路49号喜地山·金港国际F2层",
"location":"106.631511,29.716814",
"tel":"023-67802866",
"distance":"[]",
"biz_ext":"[]",
"pname":"重庆市",
"cityname":"重庆市",
"adname":"渝北区",
"importance":"[]",
"shopid":"[]",
"shopinfo":"0",
"poiweight":"[]",
"parking_type":null,
"avg_price":null,
"avg_price_type":null
},
{
"id":"B0FFGRM4EA",
"name":"永辉重庆渝北区(-两路店)",
"type":"购物服务;商场;商场",
"typecode":"060100",
"biz_type":"[]",
"address":"两路胜利路91号",
"location":"106.628350,29.717189",
"tel":"023-67175333",
"distance":"[]",
"biz_ext":"[]",
"pname":"重庆市",
"cityname":"重庆市",
"adname":"渝北区",
"importance":"[]",
"shopid":"[]",
"shopinfo":"0",
"poiweight":"[]",
"parking_type":null,
"avg_price":null,
"avg_price_type":null
},
{
"id":"B0FFGVI552",
"name":"新世纪百货(万科悦峰店)",
"type":"购物服务;超级市场;超市",
"typecode":"060400",
"biz_type":"[]",
"address":"金开大道351号万悦汇B1层",
"location":"106.546618,29.639959",
"tel":"[]",
"distance":"[]",
"biz_ext":"[]",
"pname":"重庆市",
"cityname":"重庆市",
"adname":"渝北区",
"importance":"[]",
"shopid":"[]",
"shopinfo":"0",
"poiweight":"[]",
"parking_type":null,
"avg_price":null,
"avg_price_type":null
},
{
"id":"B0FFH00IXX",
"name":"新世纪百货超市",
"type":"购物服务;购物相关场所;购物相关场所",
"typecode":"060000",
"biz_type":"[]",
"address":"龙溪街道龙溪镇金龙路216号附21号",
"location":"106.517039,29.589537",
"tel":"[]",
"distance":"[]",
"biz_ext":"[]",
"pname":"重庆市",
"cityname":"重庆市",
"adname":"渝北区",
"importance":"[]",
"shopid":"[]",
"shopinfo":"0",
"poiweight":"[]",
"parking_type":null,
"avg_price":null,
"avg_price_type":null
},
{
"id":"B0FFH3WQY0",
"name":"永辉超市(爱琴海店)",
"type":"购物服务;超级市场;超市",
"typecode":"060400",
"biz_type":"[]",
"address":"金开大道1003号爱琴海购物公园B1层",
"location":"106.548268,29.641011",
"tel":"023-63211601",
"distance":"[]",
"biz_ext":"[]",
"pname":"重庆市",
"cityname":"重庆市",
"adname":"渝北区",
"importance":"[]",
"shopid":"[]",
"shopinfo":"0",
"poiweight":"[]",
"parking_type":null,
"avg_price":null,
"avg_price_type":null
},
{
"id":"B0FFHDJR62",
"name":"世纪购(新世纪百货)",
"type":"购物服务;商场;普通商场",
"typecode":"060102",
"biz_type":"[]",
"address":"锦橙路3-附41号附近",
"location":"106.500098,29.604843",
"tel":"[]",
"distance":"[]",
"biz_ext":"[]",
"pname":"重庆市",
"cityname":"重庆市",
"adname":"渝北区",
"importance":"[]",
"shopid":"[]",
"shopinfo":"0",
"poiweight":"[]",
"parking_type":null,
"avg_price":null,
"avg_price_type":null
},
{
"id":"B0FFHIYXOZ",
"name":"永辉超市(喜悦汇店)",
"type":"购物服务;超级市场;超市",
"typecode":"060400",
"biz_type":"[]",
"address":"回兴龙石路20号附2号喜悦汇B1层",
"location":"106.612184,29.662528",
"tel":"023-67159333",
"distance":"[]",
"biz_ext":"[]",
"pname":"重庆市",
"cityname":"重庆市",
"adname":"渝北区",
"importance":"[]",
"shopid":"[]",
"shopinfo":"0",
"poiweight":"[]",
"parking_type":null,
"avg_price":null,
"avg_price_type":null
},
{
"id":"B0FFHJDMHG",
"name":"永辉超市(动力时光)",
"type":"购物服务;超级市场;超市",
"typecode":"060400",
"biz_type":"[]",
"address":"泰山大道东段62号动力时光1F层",
"location":"106.553387,29.603631",
"tel":"[]",
"distance":"[]",
"biz_ext":"[]",
"pname":"重庆市",
"cityname":"重庆市",
"adname":"渝北区",
"importance":"[]",
"shopid":"[]",
"shopinfo":"0",
"poiweight":"[]",
"parking_type":null,
"avg_price":null,
"avg_price_type":null
},
{
"id":"B0FFHMO3IL",
"name":"新世纪超市(加州店)",
"type":"购物服务;超级市场;超市",
"typecode":"060400",
"biz_type":"[]",
"address":"龙华大道1889号",
"location":"106.520923,29.587072",
"tel":"[]",
"distance":"[]",
"biz_ext":"[]",
"pname":"重庆市",
"cityname":"重庆市",
"adname":"渝北区",
"importance":"[]",
"shopid":"[]",
"shopinfo":"0",
"poiweight":"[]",
"parking_type":null,
"avg_price":null,
"avg_price_type":null
},
{
"id":"B0FFHO6WRS",
"name":"好又多超市",
"type":"购物服务;超级市场;超市",
"typecode":"060400",
"biz_type":"[]",
"address":"玉祥门时光城",
"location":"106.492527,29.578884",
"tel":"[]",
"distance":"[]",
"biz_ext":"[]",
"pname":"重庆市",
"cityname":"重庆市",
"adname":"渝北区",
"importance":"[]",
"shopid":"[]",
"shopinfo":"0",
"poiweight":"[]",
"parking_type":null,
"avg_price":null,
"avg_price_type":null
},
{
"id":"B0FFHRGWGU",
"name":"永辉超市(优选兴茂店)",
"type":"购物服务;超级市场;超市",
"typecode":"060400",
"biz_type":"[]",
"address":"兴茂·盛世",
"location":"106.489025,29.584978",
"tel":"[]",
"distance":"[]",
"biz_ext":"[]",
"pname":"重庆市",
"cityname":"重庆市",
"adname":"渝北区",
"importance":"[]",
"shopid":"[]",
"shopinfo":"0",
"poiweight":"[]",
"parking_type":null,
"avg_price":null,
"avg_price_type":null
},
{
"id":"B0FFHS34TJ",
"name":"永辉重庆渝北区(-泰山大道店)",
"type":"购物服务;商场;商场",
"typecode":"060100",
"biz_type":"[]",
"address":"北部新区泰山大道东段62号动力时光购",
"location":"106.553730,29.604011",
"tel":"023-60367733",
"distance":"[]",
"biz_ext":"[]",
"pname":"重庆市",
"cityname":"重庆市",
"adname":"渝北区",
"importance":"[]",
"shopid":"[]",
"shopinfo":"0",
"poiweight":"[]",
"parking_type":null,
"avg_price":null,
"avg_price_type":null
},
{
"id":"B0FFHS57N3",
"name":"永辉超市(出入口)",
"type":"购物服务;购物相关场所;购物相关场所",
"typecode":"060000",
"biz_type":"[]",
"address":"红叶路27号附近",
"location":"106.527343,29.604093",
"tel":"[]",
"distance":"[]",
"biz_ext":"[]",
"pname":"重庆市",
"cityname":"重庆市",
"adname":"渝北区",
"importance":"[]",
"shopid":"[]",
"shopinfo":"0",
"poiweight":"[]",
"parking_type":null,
"avg_price":null,
"avg_price_type":null
},
{
"id":"B0FFHSDUAL",
"name":"中百仓储超市(伴山名都店)",
"type":"购物服务;超级市场;超市",
"typecode":"060400",
"biz_type":"[]",
"address":"回兴街道兴科大道293号伴山名都9栋1-5、1-6室",
"location":"106.607655,29.689958",
"tel":"023-67386385",
"distance":"[]",
"biz_ext":"[]",
"pname":"重庆市",
"cityname":"重庆市",
"adname":"渝北区",
"importance":"[]",
"shopid":"[]",
"shopinfo":"0",
"poiweight":"[]",
"parking_type":null,
"avg_price":null,
"avg_price_type":null
}
]
}