{
"RECORDS":[
{
"id":"B001785FBB",
"name":"义胜连锁超市(渝州新都店)",
"type":"购物服务;便民商店\/便利店;便民商店\/便利店",
"typecode":"060200",
"biz_type":"[]",
"address":"大坪正街140号华宇渝州新都附近",
"location":"106.508171,29.538604",
"tel":"[]",
"distance":"[]",
"biz_ext":"[]",
"pname":"重庆市",
"cityname":"重庆市",
"adname":"渝中区",
"importance":"[]",
"shopid":"[]",
"shopinfo":"0",
"poiweight":"[]",
"parking_type":null,
"avg_price":null,
"avg_price_type":null
},
{
"id":"B0FFF62GVP",
"name":"顾得便利连锁",
"type":"购物服务;超级市场;超市",
"typecode":"060400",
"biz_type":"[]",
"address":"大石路渝州宾馆东侧(联通大厦西侧)",
"location":"106.506450,29.530938",
"tel":"[]",
"distance":"[]",
"biz_ext":"[]",
"pname":"重庆市",
"cityname":"重庆市",
"adname":"渝中区",
"importance":"[]",
"shopid":"[]",
"shopinfo":"0",
"poiweight":"[]",
"parking_type":null,
"avg_price":null,
"avg_price_type":null
},
{
"id":"B0FFGLODAN",
"name":"重客隆健康路便利连锁超市",
"type":"购物服务;超级市场;超市",
"typecode":"060400",
"biz_type":"[]",
"address":"健康路56号",
"location":"106.542973,29.552704",
"tel":"[]",
"distance":"[]",
"biz_ext":"[]",
"pname":"重庆市",
"cityname":"重庆市",
"adname":"渝中区",
"importance":"[]",
"shopid":"[]",
"shopinfo":"0",
"poiweight":"[]",
"parking_type":null,
"avg_price":null,
"avg_price_type":null
},
{
"id":"B0FFGM0G99",
"name":"惠隆花街子便利连锁店",
"type":"购物服务;超级市场;超市",
"typecode":"060400",
"biz_type":"[]",
"address":"花街子103附6号",
"location":"106.574810,29.549970",
"tel":"[]",
"distance":"[]",
"biz_ext":"[]",
"pname":"重庆市",
"cityname":"重庆市",
"adname":"渝中区",
"importance":"[]",
"shopid":"[]",
"shopinfo":"0",
"poiweight":"[]",
"parking_type":null,
"avg_price":null,
"avg_price_type":null
},
{
"id":"B0FFHQ0665",
"name":"24H连锁便利店",
"type":"购物服务;便民商店\/便利店;便民商店\/便利店",
"typecode":"060200",
"biz_type":"[]",
"address":"经纬大道774号协信星光天地F4",
"location":"106.501532,29.545304",
"tel":"[]",
"distance":"[]",
"biz_ext":"[]",
"pname":"重庆市",
"cityname":"重庆市",
"adname":"渝中区",
"importance":"[]",
"shopid":"[]",
"shopinfo":"0",
"poiweight":"[]",
"parking_type":null,
"avg_price":null,
"avg_price_type":null
}
]
}