{
"RECORDS":[
{
"id":"B00179294F",
"name":"大地仓储超市(唐家沱连锁店)",
"type":"购物服务;超级市场;超市",
"typecode":"060400",
"biz_type":"[]",
"address":"唐家沱东风一村1号",
"location":"106.642960,29.595120",
"tel":"023-67783297",
"distance":"[]",
"biz_ext":"[]",
"pname":"重庆市",
"cityname":"重庆市",
"adname":"江北区",
"importance":"[]",
"shopid":"[]",
"shopinfo":"0",
"poiweight":"[]",
"parking_type":null,
"avg_price":null,
"avg_price_type":null
},
{
"id":"B001792A89",
"name":"三诚连锁超市",
"type":"购物服务;超级市场;超市",
"typecode":"060400",
"biz_type":"[]",
"address":"郭家沱街道琏珠村",
"location":"106.714170,29.592930",
"tel":"[]",
"distance":"[]",
"biz_ext":"[]",
"pname":"重庆市",
"cityname":"重庆市",
"adname":"江北区",
"importance":"[]",
"shopid":"[]",
"shopinfo":"0",
"poiweight":"[]",
"parking_type":null,
"avg_price":null,
"avg_price_type":null
},
{
"id":"B001792IVW",
"name":"KK连锁超市",
"type":"购物服务;超级市场;超市",
"typecode":"060400",
"biz_type":"[]",
"address":"海尔路988号附近",
"location":"106.654690,29.601361",
"tel":"[]",
"distance":"[]",
"biz_ext":"[]",
"pname":"重庆市",
"cityname":"重庆市",
"adname":"江北区",
"importance":"[]",
"shopid":"[]",
"shopinfo":"0",
"poiweight":"[]",
"parking_type":null,
"avg_price":null,
"avg_price_type":null
},
{
"id":"B001793HSS",
"name":"好家连锁超市",
"type":"购物服务;超级市场;超市",
"typecode":"060400",
"biz_type":"[]",
"address":"嘉陵六村4号",
"location":"106.524122,29.567106",
"tel":"[]",
"distance":"[]",
"biz_ext":"[]",
"pname":"重庆市",
"cityname":"重庆市",
"adname":"江北区",
"importance":"[]",
"shopid":"[]",
"shopinfo":"0",
"poiweight":"[]",
"parking_type":null,
"avg_price":null,
"avg_price_type":null
},
{
"id":"B0FFGWOTMM",
"name":"渝合君阳连锁超市(盘溪店)",
"type":"购物服务;超级市场;超市",
"typecode":"060400",
"biz_type":"[]",
"address":"盘溪二支路10号明瑜南桥丽景旁",
"location":"106.488684,29.577935",
"tel":"13220321519",
"distance":"[]",
"biz_ext":"[]",
"pname":"重庆市",
"cityname":"重庆市",
"adname":"江北区",
"importance":"[]",
"shopid":"[]",
"shopinfo":"0",
"poiweight":"[]",
"parking_type":null,
"avg_price":null,
"avg_price_type":null
},
{
"id":"B0FFGZW4IE",
"name":"花间阁鲜花坊连锁(大石坝店)",
"type":"购物服务;专卖店;专营店",
"typecode":"061200",
"biz_type":"[]",
"address":"大石坝元佳广场永辉超市旁",
"location":"106.496952,29.571240",
"tel":"18223853525",
"distance":"[]",
"biz_ext":"[]",
"pname":"重庆市",
"cityname":"重庆市",
"adname":"江北区",
"importance":"[]",
"shopid":"[]",
"shopinfo":"0",
"poiweight":"[]",
"parking_type":null,
"avg_price":null,
"avg_price_type":null
},
{
"id":"B0FFHD1Y3D",
"name":"众源连锁(栋梁一路店)",
"type":"购物服务;购物相关场所;购物相关场所",
"typecode":"060000",
"biz_type":"[]",
"address":"栋梁一路天然居风味鱼庄西南侧",
"location":"106.647448,29.596149",
"tel":"[]",
"distance":"[]",
"biz_ext":"[]",
"pname":"重庆市",
"cityname":"重庆市",
"adname":"江北区",
"importance":"[]",
"shopid":"[]",
"shopinfo":"0",
"poiweight":"[]",
"parking_type":null,
"avg_price":null,
"avg_price_type":null
},
{
"id":"B0FFHHXS4X",
"name":"24H连锁便利店(新新PARK店)",
"type":"购物服务;便民商店\/便利店;便民商店\/便利店",
"typecode":"060200",
"biz_type":"[]",
"address":"同原江北鸿恩寺项目三期6幢1-商铺13",
"location":"106.495941,29.569876",
"tel":"023-67877385",
"distance":"[]",
"biz_ext":"[]",
"pname":"重庆市",
"cityname":"重庆市",
"adname":"江北区",
"importance":"[]",
"shopid":"[]",
"shopinfo":"0",
"poiweight":"[]",
"parking_type":null,
"avg_price":null,
"avg_price_type":null
},
{
"id":"B0FFHLQENO",
"name":"新鲜果巢水果连锁超市",
"type":"购物服务;超级市场;超市",
"typecode":"060400",
"biz_type":"[]",
"address":"阳光城一层",
"location":"106.531584,29.576669",
"tel":"[]",
"distance":"[]",
"biz_ext":"[]",
"pname":"重庆市",
"cityname":"重庆市",
"adname":"江北区",
"importance":"[]",
"shopid":"[]",
"shopinfo":"0",
"poiweight":"[]",
"parking_type":null,
"avg_price":null,
"avg_price_type":null
},
{
"id":"B0FFHRILSI",
"name":"seven-125小时连锁进口食品店(江北黄金海岸分店)",
"type":"购物服务;购物相关场所;购物相关场所",
"typecode":"060000",
"biz_type":"[]",
"address":"建新南路2-55号seven-1",
"location":"106.533709,29.571991",
"tel":"[]",
"distance":"[]",
"biz_ext":"[]",
"pname":"重庆市",
"cityname":"重庆市",
"adname":"江北区",
"importance":"[]",
"shopid":"[]",
"shopinfo":"0",
"poiweight":"[]",
"parking_type":null,
"avg_price":null,
"avg_price_type":null
}
]
}