{
"RECORDS":[
{
"id":"B00178XAV7",
"name":"重客隆超市(六公里连锁店)",
"type":"购物服务;超级市场;超市",
"typecode":"060400",
"biz_type":"[]",
"address":"学府大道51号T4-T5栋平街1层",
"location":"106.573493,29.498148",
"tel":"023-62786011",
"distance":"[]",
"biz_ext":"[]",
"pname":"重庆市",
"cityname":"重庆市",
"adname":"南岸区",
"importance":"[]",
"shopid":"[]",
"shopinfo":"0",
"poiweight":"[]",
"parking_type":null,
"avg_price":null,
"avg_price_type":null
},
{
"id":"B001791PWJ",
"name":"福达连锁批发超市",
"type":"购物服务;超级市场;超市",
"typecode":"060400",
"biz_type":"[]",
"address":"弹广路鸡冠石镇纳溪沟村",
"location":"106.635780,29.582710",
"tel":"[]",
"distance":"[]",
"biz_ext":"[]",
"pname":"重庆市",
"cityname":"重庆市",
"adname":"南岸区",
"importance":"[]",
"shopid":"[]",
"shopinfo":"0",
"poiweight":"[]",
"parking_type":null,
"avg_price":null,
"avg_price_type":null
},
{
"id":"B0FFGIM9QU",
"name":"重客隆超市(海棠溪连锁店)",
"type":"购物服务;超级市场;超市",
"typecode":"060400",
"biz_type":"[]",
"address":"敦厚街36号附15号",
"location":"106.587974,29.540168",
"tel":"023-62513942",
"distance":"[]",
"biz_ext":"[]",
"pname":"重庆市",
"cityname":"重庆市",
"adname":"南岸区",
"importance":"[]",
"shopid":"[]",
"shopinfo":"0",
"poiweight":"[]",
"parking_type":null,
"avg_price":null,
"avg_price_type":null
},
{
"id":"B0FFGLMQS7",
"name":"重客隆十一中便利连锁超市",
"type":"购物服务;超级市场;超市",
"typecode":"060400",
"biz_type":"[]",
"address":"弹子石新街57号附16号",
"location":"106.596749,29.580613",
"tel":"[]",
"distance":"[]",
"biz_ext":"[]",
"pname":"重庆市",
"cityname":"重庆市",
"adname":"南岸区",
"importance":"[]",
"shopid":"[]",
"shopinfo":"0",
"poiweight":"[]",
"parking_type":null,
"avg_price":null,
"avg_price_type":null
},
{
"id":"B0FFGVX59H",
"name":"心馨连锁超市(国际社区店)",
"type":"购物服务;便民商店\/便利店;便民商店\/便利店",
"typecode":"060200",
"biz_type":"[]",
"address":"腾龙大道38号附113号",
"location":"106.595909,29.591253",
"tel":"15213033185",
"distance":"[]",
"biz_ext":"[]",
"pname":"重庆市",
"cityname":"重庆市",
"adname":"南岸区",
"importance":"[]",
"shopid":"[]",
"shopinfo":"0",
"poiweight":"[]",
"parking_type":null,
"avg_price":null,
"avg_price_type":null
},
{
"id":"B0FFH47JMU",
"name":"宇辉连锁批发超市",
"type":"购物服务;便民商店\/便利店;便民商店\/便利店",
"typecode":"060200",
"biz_type":"[]",
"address":"城南家园中一路4号3幢1单元",
"location":"106.649523,29.516477",
"tel":"[]",
"distance":"[]",
"biz_ext":"[]",
"pname":"重庆市",
"cityname":"重庆市",
"adname":"南岸区",
"importance":"[]",
"shopid":"[]",
"shopinfo":"0",
"poiweight":"[]",
"parking_type":null,
"avg_price":null,
"avg_price_type":null
},
{
"id":"B0FFHDYP0J",
"name":"聚惠乐连锁超市",
"type":"购物服务;购物相关场所;购物相关场所",
"typecode":"060000",
"biz_type":"[]",
"address":"汇龙路68号第7号楼1层8号",
"location":"106.557459,29.499343",
"tel":"13594112785",
"distance":"[]",
"biz_ext":"[]",
"pname":"重庆市",
"cityname":"重庆市",
"adname":"南岸区",
"importance":"[]",
"shopid":"[]",
"shopinfo":"0",
"poiweight":"[]",
"parking_type":null,
"avg_price":null,
"avg_price_type":null
},
{
"id":"B0FFHG6MAJ",
"name":"聚惠乐连锁超市",
"type":"购物服务;购物相关场所;购物相关场所",
"typecode":"060000",
"biz_type":"[]",
"address":"茶园桂雨支路6号附32号",
"location":"106.662214,29.500804",
"tel":"18723476768",
"distance":"[]",
"biz_ext":"[]",
"pname":"重庆市",
"cityname":"重庆市",
"adname":"南岸区",
"importance":"[]",
"shopid":"[]",
"shopinfo":"0",
"poiweight":"[]",
"parking_type":null,
"avg_price":null,
"avg_price_type":null
},
{
"id":"B0FFHG8KFA",
"name":"星尚连锁丽城专属工作室(四公里店)",
"type":"购物服务;购物相关场所;购物相关场所",
"typecode":"060000",
"biz_type":"[]",
"address":"四公里永辉超市出口正对面(四公里车站旁)",
"location":"106.574379,29.511575",
"tel":"18996777597",
"distance":"[]",
"biz_ext":"[]",
"pname":"重庆市",
"cityname":"重庆市",
"adname":"南岸区",
"importance":"[]",
"shopid":"[]",
"shopinfo":"0",
"poiweight":"[]",
"parking_type":null,
"avg_price":null,
"avg_price_type":null
},
{
"id":"B0FFHNQ64N",
"name":"k24h连锁便利店",
"type":"购物服务;便民商店\/便利店;便民商店\/便利店",
"typecode":"060200",
"biz_type":"[]",
"address":"腾黄路48号附近",
"location":"106.601876,29.600017",
"tel":"[]",
"distance":"[]",
"biz_ext":"[]",
"pname":"重庆市",
"cityname":"重庆市",
"adname":"南岸区",
"importance":"[]",
"shopid":"[]",
"shopinfo":"0",
"poiweight":"[]",
"parking_type":null,
"avg_price":null,
"avg_price_type":null
},
{
"id":"B0FFHP1BNT",
"name":"华亿连锁超市",
"type":"购物服务;超级市场;超市",
"typecode":"060400",
"biz_type":"[]",
"address":"南坪学府大道66号重庆交通大学-河海学院附近",
"location":"106.571300,29.491800",
"tel":"[]",
"distance":"[]",
"biz_ext":"[]",
"pname":"重庆市",
"cityname":"重庆市",
"adname":"南岸区",
"importance":"[]",
"shopid":"[]",
"shopinfo":"0",
"poiweight":"[]",
"parking_type":null,
"avg_price":null,
"avg_price_type":null
},
{
"id":"B0FFHQKD2X",
"name":"华亿连锁超市",
"type":"购物服务;超级市场;超市",
"typecode":"060400",
"biz_type":"[]",
"address":"广黔路与翠林路交叉口西北150米",
"location":"106.583694,29.508276",
"tel":"[]",
"distance":"[]",
"biz_ext":"[]",
"pname":"重庆市",
"cityname":"重庆市",
"adname":"南岸区",
"importance":"[]",
"shopid":"[]",
"shopinfo":"0",
"poiweight":"[]",
"parking_type":null,
"avg_price":null,
"avg_price_type":null
}
]
}