{
"RECORDS":[
{
"id":"B00170354A",
"name":"新世纪百货(李家沱店)",
"type":"购物服务;超级市场;超市",
"typecode":"060400",
"biz_type":"[]",
"address":"李家沱镇水轮村8栋附1楼",
"location":"106.542919,29.465207",
"tel":"023-89803805;023-62859529",
"distance":"[]",
"biz_ext":"[]",
"pname":"重庆市",
"cityname":"重庆市",
"adname":"巴南区",
"importance":"[]",
"shopid":"[]",
"shopinfo":"0",
"poiweight":"[]",
"parking_type":null,
"avg_price":null,
"avg_price_type":null
},
{
"id":"B001709S92",
"name":"新世纪百货巴南商都",
"type":"购物服务;商场;购物中心",
"typecode":"060101",
"biz_type":"[]",
"address":"新市街80号",
"location":"106.523542,29.383667",
"tel":"023-88963000",
"distance":"[]",
"biz_ext":"[]",
"pname":"重庆市",
"cityname":"重庆市",
"adname":"巴南区",
"importance":"[]",
"shopid":"[]",
"shopinfo":"0",
"poiweight":"[]",
"parking_type":null,
"avg_price":null,
"avg_price_type":null
},
{
"id":"B00170AI7R",
"name":"新世纪百货(马王坪店)",
"type":"购物服务;超级市场;超市",
"typecode":"060400",
"biz_type":"[]",
"address":"李家沱马王坪正街29号",
"location":"106.535160,29.465722",
"tel":"023-89800632;023-62859529",
"distance":"[]",
"biz_ext":"[]",
"pname":"重庆市",
"cityname":"重庆市",
"adname":"巴南区",
"importance":"[]",
"shopid":"[]",
"shopinfo":"0",
"poiweight":"[]",
"parking_type":null,
"avg_price":null,
"avg_price_type":null
},
{
"id":"B001786TTM",
"name":"重百超市(融汇半岛店)",
"type":"购物服务;超级市场;超市",
"typecode":"060400",
"biz_type":"[]",
"address":"融汇大道1号附52号",
"location":"106.518712,29.464647",
"tel":"023-62407128",
"distance":"[]",
"biz_ext":"[]",
"pname":"重庆市",
"cityname":"重庆市",
"adname":"巴南区",
"importance":"[]",
"shopid":"[]",
"shopinfo":"0",
"poiweight":"[]",
"parking_type":null,
"avg_price":null,
"avg_price_type":null
},
{
"id":"B0017876A2",
"name":"新世纪百货(大江店)",
"type":"购物服务;商场;普通商场",
"typecode":"060102",
"biz_type":"[]",
"address":"鱼洞镇黄溪街105号",
"location":"106.505899,29.388069",
"tel":"023-89800691",
"distance":"[]",
"biz_ext":"[]",
"pname":"重庆市",
"cityname":"重庆市",
"adname":"巴南区",
"importance":"[]",
"shopid":"[]",
"shopinfo":"0",
"poiweight":"[]",
"parking_type":null,
"avg_price":null,
"avg_price_type":null
},
{
"id":"B0017876J0",
"name":"中百仓储(巴南店)",
"type":"购物服务;超级市场;超市",
"typecode":"060400",
"biz_type":"[]",
"address":"巴县大道102号附1号",
"location":"106.514222,29.385565",
"tel":"023-66220313",
"distance":"[]",
"biz_ext":"[]",
"pname":"重庆市",
"cityname":"重庆市",
"adname":"巴南区",
"importance":"[]",
"shopid":"[]",
"shopinfo":"0",
"poiweight":"[]",
"parking_type":null,
"avg_price":null,
"avg_price_type":null
},
{
"id":"B001788DJW",
"name":"永辉超市(都和广场店)",
"type":"购物服务;超级市场;超市",
"typecode":"060400",
"biz_type":"[]",
"address":"李家沱林荫村18号都和广场B1层",
"location":"106.541381,29.465002",
"tel":"023-62401333",
"distance":"[]",
"biz_ext":"[]",
"pname":"重庆市",
"cityname":"重庆市",
"adname":"巴南区",
"importance":"[]",
"shopid":"[]",
"shopinfo":"0",
"poiweight":"[]",
"parking_type":null,
"avg_price":null,
"avg_price_type":null
},
{
"id":"B00178VITV",
"name":"新世纪超市(巴南店)",
"type":"购物服务;超级市场;超市",
"typecode":"060400",
"biz_type":"[]",
"address":"新市街60号协信购物广场",
"location":"106.525382,29.382040",
"tel":"023-89806603",
"distance":"[]",
"biz_ext":"[]",
"pname":"重庆市",
"cityname":"重庆市",
"adname":"巴南区",
"importance":"[]",
"shopid":"[]",
"shopinfo":"0",
"poiweight":"[]",
"parking_type":null,
"avg_price":null,
"avg_price_type":null
},
{
"id":"B00178VMVS",
"name":"永辉超市(人民广场店)",
"type":"购物服务;超级市场;超市",
"typecode":"060400",
"biz_type":"[]",
"address":"鱼轻路30号巴南人民广场",
"location":"106.517097,29.380232",
"tel":"023-66225050",
"distance":"[]",
"biz_ext":"[]",
"pname":"重庆市",
"cityname":"重庆市",
"adname":"巴南区",
"importance":"[]",
"shopid":"[]",
"shopinfo":"0",
"poiweight":"[]",
"parking_type":null,
"avg_price":null,
"avg_price_type":null
},
{
"id":"B00178VPL0",
"name":"重百(李家沱商场)",
"type":"购物服务;商场;普通商场",
"typecode":"060102",
"biz_type":"[]",
"address":"李家沱林荫村18号",
"location":"106.541868,29.464511",
"tel":"023-62858962;023-62858744",
"distance":"[]",
"biz_ext":"[]",
"pname":"重庆市",
"cityname":"重庆市",
"adname":"巴南区",
"importance":"[]",
"shopid":"[]",
"shopinfo":"0",
"poiweight":"[]",
"parking_type":null,
"avg_price":null,
"avg_price_type":null
},
{
"id":"B00178X3LD",
"name":"永辉超市(土桥店)",
"type":"购物服务;超级市场;超市",
"typecode":"060400",
"biz_type":"[]",
"address":"花溪镇红光大道50号",
"location":"106.544807,29.452972",
"tel":"023-62594333",
"distance":"[]",
"biz_ext":"[]",
"pname":"重庆市",
"cityname":"重庆市",
"adname":"巴南区",
"importance":"[]",
"shopid":"[]",
"shopinfo":"0",
"poiweight":"[]",
"parking_type":null,
"avg_price":null,
"avg_price_type":null
},
{
"id":"B00178X4WI",
"name":"新世纪百货(鱼胡路店)",
"type":"购物服务;商场;普通商场",
"typecode":"060102",
"biz_type":"[]",
"address":"龙洲湾街道一城龙州9号鱼胡路",
"location":"106.535136,29.376359",
"tel":"[]",
"distance":"[]",
"biz_ext":"[]",
"pname":"重庆市",
"cityname":"重庆市",
"adname":"巴南区",
"importance":"[]",
"shopid":"[]",
"shopinfo":"0",
"poiweight":"[]",
"parking_type":null,
"avg_price":null,
"avg_price_type":null
},
{
"id":"B0FFF3P4UB",
"name":"新世纪百货(龙洲湾店)",
"type":"购物服务;商场;普通商场",
"typecode":"060102",
"biz_type":"[]",
"address":"龙海大道5号1栋B1层",
"location":"106.541998,29.400341",
"tel":"023-88963318",
"distance":"[]",
"biz_ext":"[]",
"pname":"重庆市",
"cityname":"重庆市",
"adname":"巴南区",
"importance":"[]",
"shopid":"[]",
"shopinfo":"0",
"poiweight":"[]",
"parking_type":null,
"avg_price":null,
"avg_price_type":null
},
{
"id":"B0FFFRZT3D",
"name":"新世纪超市(江巴南店)",
"type":"购物服务;超级市场;超市",
"typecode":"060400",
"biz_type":"[]",
"address":"新民街190号附近",
"location":"106.525968,29.382583",
"tel":"[]",
"distance":"[]",
"biz_ext":"[]",
"pname":"重庆市",
"cityname":"重庆市",
"adname":"巴南区",
"importance":"[]",
"shopid":"[]",
"shopinfo":"0",
"poiweight":"[]",
"parking_type":null,
"avg_price":null,
"avg_price_type":null
},
{
"id":"B0FFGB7P83",
"name":"永辉超市(巴南万达店)",
"type":"购物服务;超级市场;超市",
"typecode":"060400",
"biz_type":"[]",
"address":"龙洲大道5号巴南万达广场B1层",
"location":"106.543899,29.399672",
"tel":"[]",
"distance":"[]",
"biz_ext":"[]",
"pname":"重庆市",
"cityname":"重庆市",
"adname":"巴南区",
"importance":"[]",
"shopid":"[]",
"shopinfo":"0",
"poiweight":"[]",
"parking_type":null,
"avg_price":null,
"avg_price_type":null
},
{
"id":"B0FFGW5HS8",
"name":"新世纪百货外卖场",
"type":"购物服务;综合市场;农副产品市场",
"typecode":"060703",
"biz_type":"[]",
"address":"李家沱车站旁(车站)李家沱正街160号",
"location":"106.542884,29.465097",
"tel":"023-89803805",
"distance":"[]",
"biz_ext":"[]",
"pname":"重庆市",
"cityname":"重庆市",
"adname":"巴南区",
"importance":"[]",
"shopid":"[]",
"shopinfo":"0",
"poiweight":"[]",
"parking_type":null,
"avg_price":null,
"avg_price_type":null
},
{
"id":"B0FFHFUS8U",
"name":"好又多超市",
"type":"购物服务;购物相关场所;购物相关场所",
"typecode":"060000",
"biz_type":"[]",
"address":"天鹿大道附近",
"location":"106.625370,29.457170",
"tel":"[]",
"distance":"[]",
"biz_ext":"[]",
"pname":"重庆市",
"cityname":"重庆市",
"adname":"巴南区",
"importance":"[]",
"shopid":"[]",
"shopinfo":"0",
"poiweight":"[]",
"parking_type":null,
"avg_price":null,
"avg_price_type":null
}
]
}