{
"RECORDS":[
{
"id":"B001702A11",
"name":"新世纪百货(天星桥店)",
"type":"购物服务;超级市场;超市",
"typecode":"060400",
"biz_type":"[]",
"address":"天星桥正街63号恒鑫花园B1层",
"location":"106.455032,29.544822",
"tel":"023-89856059;023-65458729",
"distance":"[]",
"biz_ext":"[]",
"pname":"重庆市",
"cityname":"重庆市",
"adname":"沙坪坝区",
"importance":"[]",
"shopid":"[]",
"shopinfo":"0",
"poiweight":"[]",
"parking_type":null,
"avg_price":null,
"avg_price_type":null
},
{
"id":"B00170AI7W",
"name":"新世纪百货(小龙坎店)",
"type":"购物服务;超级市场;超市",
"typecode":"060400",
"biz_type":"[]",
"address":"小龙坎正街139-2号",
"location":"106.465914,29.551841",
"tel":"023-89851621",
"distance":"[]",
"biz_ext":"[]",
"pname":"重庆市",
"cityname":"重庆市",
"adname":"沙坪坝区",
"importance":"[]",
"shopid":"[]",
"shopinfo":"0",
"poiweight":"[]",
"parking_type":null,
"avg_price":null,
"avg_price_type":null
},
{
"id":"B00170HZY3",
"name":"重百超市(沙坪坝店)",
"type":"购物服务;商场;普通商场",
"typecode":"060102",
"biz_type":"[]",
"address":"小龙坎新街77号重百沙坪商场B1层",
"location":"106.463273,29.558291",
"tel":"023-65420844;023-65420860",
"distance":"[]",
"biz_ext":"[]",
"pname":"重庆市",
"cityname":"重庆市",
"adname":"沙坪坝区",
"importance":"[]",
"shopid":"[]",
"shopinfo":"0",
"poiweight":"[]",
"parking_type":null,
"avg_price":null,
"avg_price_type":null
},
{
"id":"B00170I0GT",
"name":"新世纪百货(陈家湾店)",
"type":"购物服务;超级市场;超市",
"typecode":"060400",
"biz_type":"[]",
"address":"渝碚路50-13号融信大厦1层",
"location":"106.455936,29.560257",
"tel":"023-89059557",
"distance":"[]",
"biz_ext":"[]",
"pname":"重庆市",
"cityname":"重庆市",
"adname":"沙坪坝区",
"importance":"[]",
"shopid":"[]",
"shopinfo":"0",
"poiweight":"[]",
"parking_type":null,
"avg_price":null,
"avg_price_type":null
},
{
"id":"B00170I0QN",
"name":"家乐福(沙坪坝店)",
"type":"购物服务;超级市场;家乐福",
"typecode":"060401",
"biz_type":"[]",
"address":"小龙坎新街029号华宇广场3号B2楼(近三峡支路)",
"location":"106.462454,29.554931",
"tel":"[]",
"distance":"[]",
"biz_ext":"[]",
"pname":"重庆市",
"cityname":"重庆市",
"adname":"沙坪坝区",
"importance":"[]",
"shopid":"[]",
"shopinfo":"0",
"poiweight":"[]",
"parking_type":null,
"avg_price":null,
"avg_price_type":null
},
{
"id":"B001786MH1",
"name":"永辉超市(双碑店)",
"type":"购物服务;超级市场;超市",
"typecode":"060400",
"biz_type":"[]",
"address":"双碑街34号鼎盛新都会B1层",
"location":"106.443765,29.603354",
"tel":"023-67560333",
"distance":"[]",
"biz_ext":"[]",
"pname":"重庆市",
"cityname":"重庆市",
"adname":"沙坪坝区",
"importance":"[]",
"shopid":"[]",
"shopinfo":"0",
"poiweight":"[]",
"parking_type":null,
"avg_price":null,
"avg_price_type":null
},
{
"id":"B001786P5G",
"name":"永辉超市(天星桥店)",
"type":"购物服务;超级市场;超市",
"typecode":"060400",
"biz_type":"[]",
"address":"天星桥正街49号",
"location":"106.455822,29.545931",
"tel":"023-65458333",
"distance":"[]",
"biz_ext":"[]",
"pname":"重庆市",
"cityname":"重庆市",
"adname":"沙坪坝区",
"importance":"[]",
"shopid":"[]",
"shopinfo":"0",
"poiweight":"[]",
"parking_type":null,
"avg_price":null,
"avg_price_type":null
},
{
"id":"B001786PAF",
"name":"沃尔玛(重庆凤天店)",
"type":"购物服务;超级市场;沃尔玛",
"typecode":"060402",
"biz_type":"[]",
"address":"凤天大道凤天路29号易城国际广场B1层",
"location":"106.457019,29.533580",
"tel":"023-65481218",
"distance":"[]",
"biz_ext":"[]",
"pname":"重庆市",
"cityname":"重庆市",
"adname":"沙坪坝区",
"importance":"[]",
"shopid":"[]",
"shopinfo":"0",
"poiweight":"[]",
"parking_type":null,
"avg_price":null,
"avg_price_type":null
},
{
"id":"B001786PDI",
"name":"永辉超市(童家桥店)",
"type":"购物服务;超级市场;超市",
"typecode":"060400",
"biz_type":"[]",
"address":"童家桥大水井1号九鼎红街B1层",
"location":"106.446007,29.572767",
"tel":"023-65335333",
"distance":"[]",
"biz_ext":"[]",
"pname":"重庆市",
"cityname":"重庆市",
"adname":"沙坪坝区",
"importance":"[]",
"shopid":"[]",
"shopinfo":"0",
"poiweight":"[]",
"parking_type":null,
"avg_price":null,
"avg_price_type":null
},
{
"id":"B001786QGD",
"name":"永辉超市(汉渝路店)",
"type":"购物服务;超级市场;超市",
"typecode":"060400",
"biz_type":"[]",
"address":"汉渝路塑料新村1号附3号",
"location":"106.469456,29.558823",
"tel":"023-65311333",
"distance":"[]",
"biz_ext":"[]",
"pname":"重庆市",
"cityname":"重庆市",
"adname":"沙坪坝区",
"importance":"[]",
"shopid":"[]",
"shopinfo":"0",
"poiweight":"[]",
"parking_type":null,
"avg_price":null,
"avg_price_type":null
},
{
"id":"B001787TUU",
"name":"新世纪百货(汉渝路店)",
"type":"购物服务;商场;购物中心",
"typecode":"060101",
"biz_type":"[]",
"address":"汉渝路162号附1号",
"location":"106.473579,29.559967",
"tel":"023-89865317",
"distance":"[]",
"biz_ext":"[]",
"pname":"重庆市",
"cityname":"重庆市",
"adname":"沙坪坝区",
"importance":"[]",
"shopid":"[]",
"shopinfo":"0",
"poiweight":"[]",
"parking_type":null,
"avg_price":null,
"avg_price_type":null
},
{
"id":"B00178UDSN",
"name":"重百超市(土湾店)",
"type":"购物服务;超级市场;超市",
"typecode":"060400",
"biz_type":"[]",
"address":"建新二村10号雪梨澳乡B1层",
"location":"106.473693,29.555866",
"tel":"023-65000811",
"distance":"[]",
"biz_ext":"[]",
"pname":"重庆市",
"cityname":"重庆市",
"adname":"沙坪坝区",
"importance":"[]",
"shopid":"[]",
"shopinfo":"0",
"poiweight":"[]",
"parking_type":null,
"avg_price":null,
"avg_price_type":null
},
{
"id":"B00178UEBS",
"name":"永辉超市(凯德广场)",
"type":"购物服务;超级市场;超市",
"typecode":"060400",
"biz_type":"[]",
"address":"小龙坎新街1号B1层",
"location":"106.462127,29.556454",
"tel":"023-65312055;023-65315333",
"distance":"[]",
"biz_ext":"[]",
"pname":"重庆市",
"cityname":"重庆市",
"adname":"沙坪坝区",
"importance":"[]",
"shopid":"[]",
"shopinfo":"0",
"poiweight":"[]",
"parking_type":null,
"avg_price":null,
"avg_price_type":null
},
{
"id":"B00178UMOI",
"name":"永辉超市(陈家桥店)",
"type":"购物服务;超级市场;超市",
"typecode":"060400",
"biz_type":"[]",
"address":"陈家桥镇桥北路4号附1号怡鑫花园B区1层",
"location":"106.337937,29.621083",
"tel":"023-65632333",
"distance":"[]",
"biz_ext":"[]",
"pname":"重庆市",
"cityname":"重庆市",
"adname":"沙坪坝区",
"importance":"[]",
"shopid":"[]",
"shopinfo":"0",
"poiweight":"[]",
"parking_type":null,
"avg_price":null,
"avg_price_type":null
},
{
"id":"B00178VTRK",
"name":"卜蜂莲花(煌华店)",
"type":"购物服务;超级市场;卜蜂莲花",
"typecode":"060409",
"biz_type":"[]",
"address":"双巷子步行街6号煌华·新纪元B2层",
"location":"106.461720,29.558102",
"tel":"023-88102888",
"distance":"[]",
"biz_ext":"[]",
"pname":"重庆市",
"cityname":"重庆市",
"adname":"沙坪坝区",
"importance":"[]",
"shopid":"[]",
"shopinfo":"0",
"poiweight":"[]",
"parking_type":null,
"avg_price":null,
"avg_price_type":null
},
{
"id":"B00178X4OB",
"name":"新世纪百货凯瑞商都生活馆",
"type":"购物服务;超级市场;超市",
"typecode":"060400",
"biz_type":"[]",
"address":"渝碚路50号融信大厦B2层",
"location":"106.461526,29.558339",
"tel":"023-89056742;023-89056899;023-88282170",
"distance":"[]",
"biz_ext":"[]",
"pname":"重庆市",
"cityname":"重庆市",
"adname":"沙坪坝区",
"importance":"[]",
"shopid":"[]",
"shopinfo":"0",
"poiweight":"[]",
"parking_type":null,
"avg_price":null,
"avg_price_type":null
},
{
"id":"B00178X6W8",
"name":"重百超市(大学城店)",
"type":"购物服务;超级市场;超市",
"typecode":"060400",
"biz_type":"[]",
"address":"大学城中路20号附41号",
"location":"106.307444,29.592122",
"tel":"023-65628095",
"distance":"[]",
"biz_ext":"[]",
"pname":"重庆市",
"cityname":"重庆市",
"adname":"沙坪坝区",
"importance":"[]",
"shopid":"[]",
"shopinfo":"0",
"poiweight":"[]",
"parking_type":null,
"avg_price":null,
"avg_price_type":null
},
{
"id":"B00178X9UF",
"name":"沃尔玛(沙正街店)",
"type":"购物服务;超级市场;沃尔玛",
"typecode":"060402",
"biz_type":"[]",
"address":"沙坪坝正街8号欣阳广场",
"location":"106.462794,29.564131",
"tel":"023-65472818;023-65472817",
"distance":"[]",
"biz_ext":"[]",
"pname":"重庆市",
"cityname":"重庆市",
"adname":"沙坪坝区",
"importance":"[]",
"shopid":"[]",
"shopinfo":"0",
"poiweight":"[]",
"parking_type":null,
"avg_price":null,
"avg_price_type":null
},
{
"id":"B00178XBRX",
"name":"永辉超市(新桥店)",
"type":"购物服务;超级市场;超市",
"typecode":"060400",
"biz_type":"[]",
"address":"新桥新村88号",
"location":"106.440634,29.524528",
"tel":"023-65201333",
"distance":"[]",
"biz_ext":"[]",
"pname":"重庆市",
"cityname":"重庆市",
"adname":"沙坪坝区",
"importance":"[]",
"shopid":"[]",
"shopinfo":"0",
"poiweight":"[]",
"parking_type":null,
"avg_price":null,
"avg_price_type":null
},
{
"id":"B00178XUDZ",
"name":"重百超市(杨公桥店)",
"type":"购物服务;超级市场;超市",
"typecode":"060400",
"biz_type":"[]",
"address":"小杨公桥168号附1号1-1号.1-2号商业门面",
"location":"106.446738,29.565242",
"tel":"023-65401978",
"distance":"[]",
"biz_ext":"[]",
"pname":"重庆市",
"cityname":"重庆市",
"adname":"沙坪坝区",
"importance":"[]",
"shopid":"[]",
"shopinfo":"0",
"poiweight":"[]",
"parking_type":null,
"avg_price":null,
"avg_price_type":null
},
{
"id":"B001790MO2",
"name":"新世纪百货(大学城店)",
"type":"购物服务;商场;普通商场",
"typecode":"060102",
"biz_type":"[]",
"address":"美丽熙街24号楼",
"location":"106.301479,29.605589",
"tel":"[]",
"distance":"[]",
"biz_ext":"[]",
"pname":"重庆市",
"cityname":"重庆市",
"adname":"沙坪坝区",
"importance":"[]",
"shopid":"[]",
"shopinfo":"0",
"poiweight":"[]",
"parking_type":null,
"avg_price":null,
"avg_price_type":null
},
{
"id":"B001790SZ9",
"name":"永辉超市(大学城富力城店)",
"type":"购物服务;超级市场;超市",
"typecode":"060400",
"biz_type":"[]",
"address":"大学城北路92号龙湖U城天街B1层LG-01",
"location":"106.293227,29.608436",
"tel":"023-65627588",
"distance":"[]",
"biz_ext":"[]",
"pname":"重庆市",
"cityname":"重庆市",
"adname":"沙坪坝区",
"importance":"[]",
"shopid":"[]",
"shopinfo":"0",
"poiweight":"[]",
"parking_type":null,
"avg_price":null,
"avg_price_type":null
},
{
"id":"B0017927HZ",
"name":"家乐福沙坪坝店(西门)",
"type":"购物服务;超级市场;家乐福",
"typecode":"060401",
"biz_type":"[]",
"address":"华宇广场48附近",
"location":"106.461260,29.555510",
"tel":"023-65322733",
"distance":"[]",
"biz_ext":"[]",
"pname":"重庆市",
"cityname":"重庆市",
"adname":"沙坪坝区",
"importance":"[]",
"shopid":"[]",
"shopinfo":"0",
"poiweight":"[]",
"parking_type":null,
"avg_price":null,
"avg_price_type":null
},
{
"id":"B001794GZ7",
"name":"新世纪百货(梨树湾店)",
"type":"购物服务;超级市场;超市",
"typecode":"060400",
"biz_type":"[]",
"address":"红槽房正街99号蓝溪谷地1栋1层",
"location":"106.447909,29.548693",
"tel":"023-88209198",
"distance":"[]",
"biz_ext":"[]",
"pname":"重庆市",
"cityname":"重庆市",
"adname":"沙坪坝区",
"importance":"[]",
"shopid":"[]",
"shopinfo":"0",
"poiweight":"[]",
"parking_type":null,
"avg_price":null,
"avg_price_type":null
},
{
"id":"B001794HOZ",
"name":"永辉超市汉渝路店(出口)",
"type":"购物服务;购物相关场所;购物相关场所",
"typecode":"060000",
"biz_type":"[]",
"address":"塑料新村1号附1号",
"location":"106.469330,29.558670",
"tel":"[]",
"distance":"[]",
"biz_ext":"[]",
"pname":"重庆市",
"cityname":"重庆市",
"adname":"沙坪坝区",
"importance":"[]",
"shopid":"[]",
"shopinfo":"0",
"poiweight":"[]",
"parking_type":null,
"avg_price":null,
"avg_price_type":null
},
{
"id":"B00179AVM2",
"name":"华润万家(小龙坎店)",
"type":"购物服务;超级市场;华润",
"typecode":"060403",
"biz_type":"[]",
"address":"小龙坎地铁B1层(近地铁1号线小龙坎站出口)",
"location":"106.467551,29.552679",
"tel":"023-65505791",
"distance":"[]",
"biz_ext":"[]",
"pname":"重庆市",
"cityname":"重庆市",
"adname":"沙坪坝区",
"importance":"[]",
"shopid":"[]",
"shopinfo":"0",
"poiweight":"[]",
"parking_type":null,
"avg_price":null,
"avg_price_type":null
},
{
"id":"B0FFF07C5F",
"name":"天福茗茶(沃尔玛易城国际店)",
"type":"购物服务;专卖店;专营店",
"typecode":"061200",
"biz_type":"[]",
"address":"高滩岩正街30号易城国际广场一层沃尔玛超市",
"location":"106.457148,29.533548",
"tel":"023-65481519",
"distance":"[]",
"biz_ext":"[]",
"pname":"重庆市",
"cityname":"重庆市",
"adname":"沙坪坝区",
"importance":"[]",
"shopid":"[]",
"shopinfo":"0",
"poiweight":"[]",
"parking_type":null,
"avg_price":null,
"avg_price_type":null
},
{
"id":"B0FFF5UO8U",
"name":"重百超市(康居西城店)",
"type":"购物服务;超级市场;超市",
"typecode":"060400",
"biz_type":"[]",
"address":"大学城康城北路1号正一层正二层",
"location":"106.312605,29.578684",
"tel":"023-65460486",
"distance":"[]",
"biz_ext":"[]",
"pname":"重庆市",
"cityname":"重庆市",
"adname":"沙坪坝区",
"importance":"[]",
"shopid":"[]",
"shopinfo":"0",
"poiweight":"[]",
"parking_type":null,
"avg_price":null,
"avg_price_type":null
},
{
"id":"B0FFF5WE6O",
"name":"新世纪百货(烈士墓店)",
"type":"购物服务;超级市场;超市",
"typecode":"060400",
"biz_type":"[]",
"address":"烈士墓壮志路43号附33号贝尔麦莎楼下(近西南政法大学)",
"location":"106.444878,29.569045",
"tel":"023-89851626",
"distance":"[]",
"biz_ext":"[]",
"pname":"重庆市",
"cityname":"重庆市",
"adname":"沙坪坝区",
"importance":"[]",
"shopid":"[]",
"shopinfo":"0",
"poiweight":"[]",
"parking_type":null,
"avg_price":null,
"avg_price_type":null
},
{
"id":"B0FFFFXZYX",
"name":"永辉超市汉渝路店(北入口)",
"type":"购物服务;超级市场;超市",
"typecode":"060400",
"biz_type":"[]",
"address":"塑料新村1号附1号",
"location":"106.469515,29.558786",
"tel":"023-65311333;023-65456023",
"distance":"[]",
"biz_ext":"[]",
"pname":"重庆市",
"cityname":"重庆市",
"adname":"沙坪坝区",
"importance":"[]",
"shopid":"[]",
"shopinfo":"0",
"poiweight":"[]",
"parking_type":null,
"avg_price":null,
"avg_price_type":null
},
{
"id":"B0FFFFY2HD",
"name":"重百超市(陈家桥店)",
"type":"购物服务;超级市场;超市",
"typecode":"060400",
"biz_type":"[]",
"address":"盛德路与沿河西路交汇处碧水云天小区",
"location":"106.332735,29.614079",
"tel":"023-88595344;023-86293788",
"distance":"[]",
"biz_ext":"[]",
"pname":"重庆市",
"cityname":"重庆市",
"adname":"沙坪坝区",
"importance":"[]",
"shopid":"[]",
"shopinfo":"0",
"poiweight":"[]",
"parking_type":null,
"avg_price":null,
"avg_price_type":null
},
{
"id":"B0FFGAZLZ5",
"name":"永辉超市(龙湖仟百汇店)",
"type":"购物服务;超级市场;超市",
"typecode":"060400",
"biz_type":"[]",
"address":"大学城北路50号龙湖仟百汇B1层",
"location":"106.317040,29.607691",
"tel":"023-65636655",
"distance":"[]",
"biz_ext":"[]",
"pname":"重庆市",
"cityname":"重庆市",
"adname":"沙坪坝区",
"importance":"[]",
"shopid":"[]",
"shopinfo":"0",
"poiweight":"[]",
"parking_type":null,
"avg_price":null,
"avg_price_type":null
},
{
"id":"B0FFGHKOWC",
"name":"永辉重庆沙坪坝区(-嘉茂购物中心店)",
"type":"购物服务;商场;商场",
"typecode":"060100",
"biz_type":"[]",
"address":"小龙坎新街029号华宇广场1号",
"location":"106.462740,29.556360",
"tel":"023-65315333",
"distance":"[]",
"biz_ext":"[]",
"pname":"重庆市",
"cityname":"重庆市",
"adname":"沙坪坝区",
"importance":"[]",
"shopid":"[]",
"shopinfo":"0",
"poiweight":"[]",
"parking_type":null,
"avg_price":null,
"avg_price_type":null
},
{
"id":"B0FFGMIIHZ",
"name":"好又多家室花店",
"type":"购物服务;超级市场;超市",
"typecode":"060400",
"biz_type":"[]",
"address":"天星桥正街95号",
"location":"106.454410,29.543949",
"tel":"4000112068",
"distance":"[]",
"biz_ext":"[]",
"pname":"重庆市",
"cityname":"重庆市",
"adname":"沙坪坝区",
"importance":"[]",
"shopid":"[]",
"shopinfo":"0",
"poiweight":"[]",
"parking_type":null,
"avg_price":null,
"avg_price_type":null
},
{
"id":"B0FFH3W44O",
"name":"重庆新世纪百货新体村店",
"type":"购物服务;商场;商场",
"typecode":"060100",
"biz_type":"[]",
"address":"汉渝路12号",
"location":"106.467360,29.557380",
"tel":"[]",
"distance":"[]",
"biz_ext":"[]",
"pname":"重庆市",
"cityname":"重庆市",
"adname":"沙坪坝区",
"importance":"[]",
"shopid":"[]",
"shopinfo":"[]",
"poiweight":"[]",
"parking_type":null,
"avg_price":null,
"avg_price_type":null
},
{
"id":"B0FFHEK1OI",
"name":"沃尔玛欣阳店(南入口)",
"type":"购物服务;超级市场;沃尔玛",
"typecode":"060402",
"biz_type":"[]",
"address":"沙坪坝南街与沙坪坝正街交叉口东南50米",
"location":"106.462429,29.563068",
"tel":"[]",
"distance":"[]",
"biz_ext":"[]",
"pname":"重庆市",
"cityname":"重庆市",
"adname":"沙坪坝区",
"importance":"[]",
"shopid":"[]",
"shopinfo":"0",
"poiweight":"[]",
"parking_type":null,
"avg_price":null,
"avg_price_type":null
},
{
"id":"B0FFHKLVDS",
"name":"好又多超市(富力城店)",
"type":"购物服务;超级市场;超市",
"typecode":"060400",
"biz_type":"[]",
"address":"大学城中路46号附33号",
"location":"106.307995,29.610390",
"tel":"13638358650",
"distance":"[]",
"biz_ext":"[]",
"pname":"重庆市",
"cityname":"重庆市",
"adname":"沙坪坝区",
"importance":"[]",
"shopid":"[]",
"shopinfo":"0",
"poiweight":"[]",
"parking_type":null,
"avg_price":null,
"avg_price_type":null
},
{
"id":"B0FFHS34JT",
"name":"永辉重庆沙坪坝区(-天星桥店)",
"type":"购物服务;商场;商场",
"typecode":"060100",
"biz_type":"[]",
"address":"天星桥正街49号平街",
"location":"106.456110,29.546070",
"tel":"023-65458333",
"distance":"[]",
"biz_ext":"[]",
"pname":"重庆市",
"cityname":"重庆市",
"adname":"沙坪坝区",
"importance":"[]",
"shopid":"[]",
"shopinfo":"0",
"poiweight":"[]",
"parking_type":null,
"avg_price":null,
"avg_price_type":null
},
{
"id":"B0FFHS34L9",
"name":"永辉重庆沙坪坝区(-陈家桥店)",
"type":"购物服务;商场;商场",
"typecode":"060100",
"biz_type":"[]",
"address":"陈家桥镇怡鑫花园B区平街",
"location":"106.337913,29.621209",
"tel":"023-65632333",
"distance":"[]",
"biz_ext":"[]",
"pname":"重庆市",
"cityname":"重庆市",
"adname":"沙坪坝区",
"importance":"[]",
"shopid":"[]",
"shopinfo":"0",
"poiweight":"[]",
"parking_type":null,
"avg_price":null,
"avg_price_type":null
},
{
"id":"B0FFHS34ML",
"name":"永辉重庆沙坪坝区(-新桥店)",
"type":"购物服务;商场;商场",
"typecode":"060100",
"biz_type":"[]",
"address":"新桥新村88号新桥新都",
"location":"106.441110,29.524450",
"tel":"023-65201333",
"distance":"[]",
"biz_ext":"[]",
"pname":"重庆市",
"cityname":"重庆市",
"adname":"沙坪坝区",
"importance":"[]",
"shopid":"[]",
"shopinfo":"0",
"poiweight":"[]",
"parking_type":null,
"avg_price":null,
"avg_price_type":null
},
{
"id":"B0FFHS34PS",
"name":"永辉重庆沙坪坝区(-大学城北路店)",
"type":"购物服务;商场;商场",
"typecode":"060100",
"biz_type":"[]",
"address":"大学城北路94号龙湖U城天街",
"location":"106.291680,29.607790",
"tel":"023-65627588",
"distance":"[]",
"biz_ext":"[]",
"pname":"重庆市",
"cityname":"重庆市",
"adname":"沙坪坝区",
"importance":"[]",
"shopid":"[]",
"shopinfo":"0",
"poiweight":"[]",
"parking_type":null,
"avg_price":null,
"avg_price_type":null
},
{
"id":"B0FFHS34SO",
"name":"永辉重庆沙坪坝区(-双碑鼎盛店)",
"type":"购物服务;商场;商场",
"typecode":"060100",
"biz_type":"[]",
"address":"双碑街33号鼎盛大厦",
"location":"106.443800,29.603300",
"tel":"023-67560333",
"distance":"[]",
"biz_ext":"[]",
"pname":"重庆市",
"cityname":"重庆市",
"adname":"沙坪坝区",
"importance":"[]",
"shopid":"[]",
"shopinfo":"0",
"poiweight":"[]",
"parking_type":null,
"avg_price":null,
"avg_price_type":null
}
]
}